{"schemaVersion":2,"city":{"id":"beijing","nameZh":"北京","nameEn":"Beijing"},"updatedAt":"2026-07-18","sources":{"network":{"label":"高德地铁图","url":"https://webapi.amap.com/subway/data/1100_drw_beijing.json"},"boundary":{"label":"DataV","url":"https://geo.datav.aliyun.com/areas_v3/bound/110000_full.json"}},"stations":{"beijing:苹果园":{"id":"beijing:苹果园","nameZh":"苹果园","nameEn":"Ping Guo Yuan","namePinyin":"ping guo yuan","lon":116.178674,"lat":39.925853},"beijing:金安桥":{"id":"beijing:金安桥","nameZh":"金安桥","nameEn":"Jin An Qiao","namePinyin":"jin an qiao","lon":116.162586,"lat":39.923298},"beijing:四道桥":{"id":"beijing:四道桥","nameZh":"四道桥","nameEn":"si dao qiao","namePinyin":"si dao qiao","lon":116.13401,"lat":39.91603},"beijing:桥户营":{"id":"beijing:桥户营","nameZh":"桥户营","nameEn":"qiao hu ying","namePinyin":"qiao hu ying","lon":116.125809,"lat":39.912383},"beijing:上岸":{"id":"beijing:上岸","nameZh":"上岸","nameEn":"shang an","namePinyin":"shang an","lon":116.122225,"lat":39.905138},"beijing:栗园庄":{"id":"beijing:栗园庄","nameZh":"栗园庄","nameEn":"li yuan zhuang","namePinyin":"li yuan zhuang","lon":116.123254,"lat":39.89578},"beijing:小园":{"id":"beijing:小园","nameZh":"小园","nameEn":"xiao yuan","namePinyin":"xiao yuan","lon":116.114443,"lat":39.890465},"beijing:石厂":{"id":"beijing:石厂","nameZh":"石厂","nameEn":"shi chang","namePinyin":"shi chang","lon":116.100334,"lat":39.889378},"beijing:古城":{"id":"beijing:古城","nameZh":"古城","nameEn":"gu cheng","namePinyin":"gu cheng","lon":116.190337,"lat":39.90745},"beijing:八宝山":{"id":"beijing:八宝山","nameZh":"八宝山","nameEn":"ba bao shan","namePinyin":"ba bao shan","lon":116.235948,"lat":39.90744},"beijing:玉泉路":{"id":"beijing:玉泉路","nameZh":"玉泉路","nameEn":"yu quan lu","namePinyin":"yu quan lu","lon":116.252888,"lat":39.907433},"beijing:五棵松":{"id":"beijing:五棵松","nameZh":"五棵松","nameEn":"wu ke song","namePinyin":"wu ke song","lon":116.273987,"lat":39.907456},"beijing:万寿路":{"id":"beijing:万寿路","nameZh":"万寿路","nameEn":"wan shou lu","namePinyin":"wan shou lu","lon":116.294765,"lat":39.907474},"beijing:公主坟":{"id":"beijing:公主坟","nameZh":"公主坟","nameEn":"gong zhu fen","namePinyin":"gong zhu fen","lon":116.309919,"lat":39.907469},"beijing:军事博物馆":{"id":"beijing:军事博物馆","nameZh":"军事博物馆","nameEn":"jun shi bo wu guan","namePinyin":"jun shi bo wu guan","lon":116.321459,"lat":39.907422},"beijing:木樨地":{"id":"beijing:木樨地","nameZh":"木樨地","nameEn":"Mu Xi Di","namePinyin":"mu xi di","lon":116.337583,"lat":39.907379},"beijing:南礼士路":{"id":"beijing:南礼士路","nameZh":"南礼士路","nameEn":"nan li shi lu","namePinyin":"nan li shi lu","lon":116.352583,"lat":39.907234},"beijing:复兴门":{"id":"beijing:复兴门","nameZh":"复兴门","nameEn":"fu xing men","namePinyin":"fu xing men","lon":116.356866,"lat":39.907242},"beijing:西单":{"id":"beijing:西单","nameZh":"西单","nameEn":"xi dan","namePinyin":"xi dan","lon":116.374072,"lat":39.907383},"beijing:天安门西":{"id":"beijing:天安门西","nameZh":"天安门西","nameEn":"tian an men xi","namePinyin":"tian an men xi","lon":116.391278,"lat":39.907472},"beijing:天安门东":{"id":"beijing:天安门东","nameZh":"天安门东","nameEn":"tian an men dong","namePinyin":"tian an men dong","lon":116.401216,"lat":39.90778},"beijing:王府井":{"id":"beijing:王府井","nameZh":"王府井","nameEn":"Wang Fu Jing","namePinyin":"wang fu jing","lon":116.411571,"lat":39.908069},"beijing:东单":{"id":"beijing:东单","nameZh":"东单","nameEn":"dong dan","namePinyin":"dong dan","lon":116.41848,"lat":39.908325},"beijing:建国门":{"id":"beijing:建国门","nameZh":"建国门","nameEn":"jian guo men","namePinyin":"jian guo men","lon":116.435806,"lat":39.908501},"beijing:永安里":{"id":"beijing:永安里","nameZh":"永安里","nameEn":"Yong An Li","namePinyin":"yong an li","lon":116.450305,"lat":39.909823},"beijing:国贸":{"id":"beijing:国贸","nameZh":"国贸","nameEn":"guo mao","namePinyin":"guo mao","lon":116.461841,"lat":39.909104},"beijing:大望路":{"id":"beijing:大望路","nameZh":"大望路","nameEn":"Da Wang Lu","namePinyin":"da wang lu","lon":116.475783,"lat":39.908287},"beijing:四惠":{"id":"beijing:四惠","nameZh":"四惠","nameEn":"Si Hui","namePinyin":"si hui","lon":116.495456,"lat":39.908749},"beijing:四惠东":{"id":"beijing:四惠东","nameZh":"四惠东","nameEn":"Si Hui Dong","namePinyin":"si hui dong","lon":116.515664,"lat":39.908495},"beijing:高碑店":{"id":"beijing:高碑店","nameZh":"高碑店","nameEn":"Gao Bei Dian","namePinyin":"gao bei dian","lon":116.531421,"lat":39.909448},"beijing:传媒大学":{"id":"beijing:传媒大学","nameZh":"传媒大学","nameEn":"Chuan Mei Da Xue","namePinyin":"chuan mei da xue","lon":116.554639,"lat":39.909215},"beijing:双桥":{"id":"beijing:双桥","nameZh":"双桥","nameEn":"Shuang Qiao","namePinyin":"shuang qiao","lon":116.57676,"lat":39.91014},"beijing:管庄":{"id":"beijing:管庄","nameZh":"管庄","nameEn":"Guan Zhuang","namePinyin":"guan zhuang","lon":116.599002,"lat":39.90909},"beijing:八里桥":{"id":"beijing:八里桥","nameZh":"八里桥","nameEn":"Ba Li Qiao","namePinyin":"ba li qiao","lon":116.618658,"lat":39.906121},"beijing:通州北苑":{"id":"beijing:通州北苑","nameZh":"通州北苑","nameEn":"Tong Zhou Bei Yuan","namePinyin":"tong zhou bei yuan","lon":116.637252,"lat":39.903864},"beijing:果园":{"id":"beijing:果园","nameZh":"果园","nameEn":"Guo Yuan","namePinyin":"guo yuan","lon":116.646621,"lat":39.893329},"beijing:九棵树":{"id":"beijing:九棵树","nameZh":"九棵树","nameEn":"Jiu Ke Shu","namePinyin":"jiu ke shu","lon":116.657533,"lat":39.890278},"beijing:梨园":{"id":"beijing:梨园","nameZh":"梨园","nameEn":"Li Yuan","namePinyin":"li yuan","lon":116.66872,"lat":39.883677},"beijing:临河里":{"id":"beijing:临河里","nameZh":"临河里","nameEn":"Lin He Li","namePinyin":"lin he li","lon":116.678811,"lat":39.875496},"beijing:土桥":{"id":"beijing:土桥","nameZh":"土桥","nameEn":"Tu Qiao","namePinyin":"tu qiao","lon":116.686349,"lat":39.871926},"beijing:花庄":{"id":"beijing:花庄","nameZh":"花庄","nameEn":"Hua Zhuang","namePinyin":"hua zhuang","lon":116.695495,"lat":39.856722},"beijing:环球度假区":{"id":"beijing:环球度假区","nameZh":"环球度假区","nameEn":"Huan Qiu Du Jia Qu","namePinyin":"huan qiu du jia qu","lon":116.679099,"lat":39.849152},"beijing:积水潭":{"id":"beijing:积水潭","nameZh":"积水潭","nameEn":"Ji Shui Tan","namePinyin":"ji shui tan","lon":116.373126,"lat":39.948653},"beijing:鼓楼大街":{"id":"beijing:鼓楼大街","nameZh":"鼓楼大街","nameEn":"gu lou da jie","namePinyin":"gu lou da jie","lon":116.393776,"lat":39.948972},"beijing:安定门":{"id":"beijing:安定门","nameZh":"安定门","nameEn":"an ding men","namePinyin":"an ding men","lon":116.40824,"lat":39.94918},"beijing:雍和宫":{"id":"beijing:雍和宫","nameZh":"雍和宫","nameEn":"yong he gong","namePinyin":"yong he gong","lon":116.417069,"lat":39.949336},"beijing:东直门":{"id":"beijing:东直门","nameZh":"东直门","nameEn":"dong zhi men","namePinyin":"dong zhi men","lon":116.435842,"lat":39.941626},"beijing:东四十条":{"id":"beijing:东四十条","nameZh":"东四十条","nameEn":"Dong Si Shi Tiao","namePinyin":"dong si shi tiao","lon":116.434137,"lat":39.933704},"beijing:朝阳门":{"id":"beijing:朝阳门","nameZh":"朝阳门","nameEn":"zhao yang men","namePinyin":"chao yang men","lon":116.434584,"lat":39.924499},"beijing:北京站":{"id":"beijing:北京站","nameZh":"北京站","nameEn":"bei jing zhan","namePinyin":"bei jing zhan","lon":116.427287,"lat":39.904983},"beijing:崇文门":{"id":"beijing:崇文门","nameZh":"崇文门","nameEn":"chong wen men","namePinyin":"chong wen men","lon":116.417093,"lat":39.901063},"beijing:前门":{"id":"beijing:前门","nameZh":"前门","nameEn":"Qian Men","namePinyin":"qian men","lon":116.397937,"lat":39.900192},"beijing:和平门":{"id":"beijing:和平门","nameZh":"和平门","nameEn":"he ping men","namePinyin":"he ping men","lon":116.384209,"lat":39.900098},"beijing:宣武门":{"id":"beijing:宣武门","nameZh":"宣武门","nameEn":"xuan wu men","namePinyin":"xuan wu men","lon":116.374314,"lat":39.899765},"beijing:长椿街":{"id":"beijing:长椿街","nameZh":"长椿街","nameEn":"chang chun jie","namePinyin":"chang chun jie","lon":116.363355,"lat":39.899433},"beijing:阜成门":{"id":"beijing:阜成门","nameZh":"阜成门","nameEn":"Fu Cheng Men","namePinyin":"fu cheng men","lon":116.356009,"lat":39.923686},"beijing:车公庄":{"id":"beijing:车公庄","nameZh":"车公庄","nameEn":"che gong zhuang","namePinyin":"che gong zhuang","lon":116.354357,"lat":39.932397},"beijing:西直门":{"id":"beijing:西直门","nameZh":"西直门","nameEn":"Xi Zhi Men","namePinyin":"xi zhi men","lon":116.355426,"lat":39.940474},"beijing:工人体育场":{"id":"beijing:工人体育场","nameZh":"工人体育场","nameEn":"Gong Ren Ti Yu Chang","namePinyin":"gong ren ti yu chang","lon":116.450448,"lat":39.934058},"beijing:团结湖":{"id":"beijing:团结湖","nameZh":"团结湖","nameEn":"Tuan Jie Hu","namePinyin":"tuan jie hu","lon":116.460186,"lat":39.933734},"beijing:朝阳公园":{"id":"beijing:朝阳公园","nameZh":"朝阳公园","nameEn":"Chao Yang Gong Yuan","namePinyin":"chao yang gong yuan","lon":116.478291,"lat":39.933492},"beijing:石佛营":{"id":"beijing:石佛营","nameZh":"石佛营","nameEn":"Shi Fo Ying","namePinyin":"shi fo ying","lon":116.498874,"lat":39.935224},"beijing:朝阳站":{"id":"beijing:朝阳站","nameZh":"朝阳站","nameEn":"Chao Yang Zhan","namePinyin":"chao yang zhan","lon":116.505761,"lat":39.943773},"beijing:姚家园":{"id":"beijing:姚家园","nameZh":"姚家园","nameEn":"Yao Jia Yuan","namePinyin":"yao jia yuan","lon":116.527282,"lat":39.947749},"beijing:东坝南":{"id":"beijing:东坝南","nameZh":"东坝南","nameEn":"Dong Ba Nan","namePinyin":"dong ba nan","lon":116.547131,"lat":39.95214},"beijing:东坝":{"id":"beijing:东坝","nameZh":"东坝","nameEn":"Dong Ba","namePinyin":"dong ba","lon":116.547126,"lat":39.965732},"beijing:东坝北":{"id":"beijing:东坝北","nameZh":"东坝北","nameEn":"Dong Ba Bei","namePinyin":"dong ba bei","lon":116.557065,"lat":39.975633},"beijing:天宫院":{"id":"beijing:天宫院","nameZh":"天宫院","nameEn":"tian gong yuan","namePinyin":"tian gong yuan","lon":116.319932,"lat":39.670342},"beijing:生物医药基地":{"id":"beijing:生物医药基地","nameZh":"生物医药基地","nameEn":"sheng wu yi yao ji di","namePinyin":"sheng wu yi yao ji di","lon":116.321662,"lat":39.68651},"beijing:义和庄":{"id":"beijing:义和庄","nameZh":"义和庄","nameEn":"yi he zhuang","namePinyin":"yi he zhuang","lon":116.319079,"lat":39.712387},"beijing:黄村火车站":{"id":"beijing:黄村火车站","nameZh":"黄村火车站","nameEn":"huang cun huo che zhan","namePinyin":"huang cun huo che zhan","lon":116.332611,"lat":39.722966},"beijing:黄村西大街":{"id":"beijing:黄村西大街","nameZh":"黄村西大街","nameEn":"huang cun xi da jie","namePinyin":"huang cun xi da jie","lon":116.332631,"lat":39.731769},"beijing:清源路":{"id":"beijing:清源路","nameZh":"清源路","nameEn":"qing yuan lu","namePinyin":"qing yuan lu","lon":116.332513,"lat":39.742724},"beijing:枣园":{"id":"beijing:枣园","nameZh":"枣园","nameEn":"zao yuan","namePinyin":"zao yuan","lon":116.332204,"lat":39.753458},"beijing:高米店南":{"id":"beijing:高米店南","nameZh":"高米店南","nameEn":"gao mi dian nan","namePinyin":"gao mi dian nan","lon":116.331605,"lat":39.763489},"beijing:高米店北":{"id":"beijing:高米店北","nameZh":"高米店北","nameEn":"gao mi dian bei","namePinyin":"gao mi dian bei","lon":116.330787,"lat":39.773547},"beijing:西红门":{"id":"beijing:西红门","nameZh":"西红门","nameEn":"xi hong men","namePinyin":"xi hong men","lon":116.328689,"lat":39.7898},"beijing:新宫":{"id":"beijing:新宫","nameZh":"新宫","nameEn":"Xin Gong","namePinyin":"xin gong","lon":116.365549,"lat":39.812592},"beijing:公益西桥":{"id":"beijing:公益西桥","nameZh":"公益西桥","nameEn":"gong yi xi qiao","namePinyin":"gong yi xi qiao","lon":116.370796,"lat":39.836135},"beijing:角门西":{"id":"beijing:角门西","nameZh":"角门西","nameEn":"jiao men xi","namePinyin":"jiao men xi","lon":116.371154,"lat":39.84585},"beijing:马家堡":{"id":"beijing:马家堡","nameZh":"马家堡","nameEn":"ma jia bao","namePinyin":"ma jia bao","lon":116.371361,"lat":39.853109},"beijing:北京南站":{"id":"beijing:北京南站","nameZh":"北京南站","nameEn":"Bei Jing Nan Zhan","namePinyin":"bei jing nan zhan","lon":116.378963,"lat":39.865029},"beijing:陶然亭":{"id":"beijing:陶然亭","nameZh":"陶然亭","nameEn":"tao ran ting","namePinyin":"tao ran ting","lon":116.374383,"lat":39.87847},"beijing:菜市口":{"id":"beijing:菜市口","nameZh":"菜市口","nameEn":"cai shi kou","namePinyin":"cai shi kou","lon":116.374425,"lat":39.889296},"beijing:灵境胡同":{"id":"beijing:灵境胡同","nameZh":"灵境胡同","nameEn":"ling jing hu tong","namePinyin":"ling jing hu tong","lon":116.373746,"lat":39.915912},"beijing:西四":{"id":"beijing:西四","nameZh":"西四","nameEn":"xi si","namePinyin":"xi si","lon":116.373332,"lat":39.924206},"beijing:平安里":{"id":"beijing:平安里","nameZh":"平安里","nameEn":"Ping An Li","namePinyin":"ping an li","lon":116.372883,"lat":39.933949},"beijing:新街口":{"id":"beijing:新街口","nameZh":"新街口","nameEn":"xin jie kou","namePinyin":"xin jie kou","lon":116.367742,"lat":39.940667},"beijing:动物园":{"id":"beijing:动物园","nameZh":"动物园","nameEn":"dong wu yuan","namePinyin":"dong wu yuan","lon":116.339031,"lat":39.93825},"beijing:国家图书馆":{"id":"beijing:国家图书馆","nameZh":"国家图书馆","nameEn":"Guo Jia Tu Shu Guan","namePinyin":"guo jia tu shu guan","lon":116.32519,"lat":39.943114},"beijing:魏公村":{"id":"beijing:魏公村","nameZh":"魏公村","nameEn":"wei gong cun","namePinyin":"wei gong cun","lon":116.32322,"lat":39.957904},"beijing:人民大学":{"id":"beijing:人民大学","nameZh":"人民大学","nameEn":"Ren Min Da Xue","namePinyin":"ren min da xue","lon":116.321367,"lat":39.966956},"beijing:海淀黄庄":{"id":"beijing:海淀黄庄","nameZh":"海淀黄庄","nameEn":"hai dian huang zhuang","namePinyin":"hai dian huang zhuang","lon":116.317564,"lat":39.975996},"beijing:中关村":{"id":"beijing:中关村","nameZh":"中关村","nameEn":"zhong guan cun","namePinyin":"zhong guan cun","lon":116.316467,"lat":39.983991},"beijing:北京大学东门":{"id":"beijing:北京大学东门","nameZh":"北京大学东门","nameEn":"bei jing da xue dong men","namePinyin":"bei jing da xue dong men","lon":116.315842,"lat":39.992212},"beijing:圆明园":{"id":"beijing:圆明园","nameZh":"圆明园","nameEn":"yuan ming yuan","namePinyin":"yuan ming yuan","lon":116.310186,"lat":39.999662},"beijing:西苑":{"id":"beijing:西苑","nameZh":"西苑","nameEn":"xi yuan","namePinyin":"xi yuan","lon":116.290908,"lat":39.998258},"beijing:北宫门":{"id":"beijing:北宫门","nameZh":"北宫门","nameEn":"bei gong men","namePinyin":"bei gong men","lon":116.277647,"lat":40.002373},"beijing:安河桥北":{"id":"beijing:安河桥北","nameZh":"安河桥北","nameEn":"an he qiao bei","namePinyin":"an he qiao bei","lon":116.269956,"lat":40.012195},"beijing:宋家庄":{"id":"beijing:宋家庄","nameZh":"宋家庄","nameEn":"song jia zhuang","namePinyin":"song jia zhuang","lon":116.428368,"lat":39.845849},"beijing:刘家窑":{"id":"beijing:刘家窑","nameZh":"刘家窑","nameEn":"liu jia yao","namePinyin":"liu jia yao","lon":116.422119,"lat":39.857521},"beijing:蒲黄榆":{"id":"beijing:蒲黄榆","nameZh":"蒲黄榆","nameEn":"Pu Huang Yu","namePinyin":"pu huang yu","lon":116.423087,"lat":39.865584},"beijing:天坛东门":{"id":"beijing:天坛东门","nameZh":"天坛东门","nameEn":"tian tan dong men","namePinyin":"tian tan dong men","lon":116.420833,"lat":39.882558},"beijing:磁器口":{"id":"beijing:磁器口","nameZh":"磁器口","nameEn":"ci qi kou","namePinyin":"ci qi kou","lon":116.41994,"lat":39.893172},"beijing:灯市口":{"id":"beijing:灯市口","nameZh":"灯市口","nameEn":"deng shi kou","namePinyin":"deng shi kou","lon":116.417783,"lat":39.917113},"beijing:东四":{"id":"beijing:东四","nameZh":"东四","nameEn":"dong si","namePinyin":"dong si","lon":116.417493,"lat":39.92437},"beijing:张自忠路":{"id":"beijing:张自忠路","nameZh":"张自忠路","nameEn":"zhang zi zhong lu","namePinyin":"zhang zi zhong lu","lon":116.417156,"lat":39.933592},"beijing:北新桥":{"id":"beijing:北新桥","nameZh":"北新桥","nameEn":"Bei Xin Qiao","namePinyin":"bei xin qiao","lon":116.416884,"lat":39.940782},"beijing:和平里北街":{"id":"beijing:和平里北街","nameZh":"和平里北街","nameEn":"he ping li bei jie","namePinyin":"he ping li bei jie","lon":116.418504,"lat":39.958734},"beijing:和平西桥":{"id":"beijing:和平西桥","nameZh":"和平西桥","nameEn":"He Ping Xi Qiao","namePinyin":"he ping xi qiao","lon":116.41797,"lat":39.968258},"beijing:惠新西街南口":{"id":"beijing:惠新西街南口","nameZh":"惠新西街南口","nameEn":"hui xin xi jie nan kou","namePinyin":"hui xin xi jie nan kou","lon":116.417537,"lat":39.977121},"beijing:惠新西街北口":{"id":"beijing:惠新西街北口","nameZh":"惠新西街北口","nameEn":"hui xin xi jie bei kou","namePinyin":"hui xin xi jie bei kou","lon":116.417028,"lat":39.987836},"beijing:大屯路东":{"id":"beijing:大屯路东","nameZh":"大屯路东","nameEn":"da tun lu dong","namePinyin":"da tun lu dong","lon":116.417377,"lat":40.003841},"beijing:北苑路北":{"id":"beijing:北苑路北","nameZh":"北苑路北","nameEn":"bei yuan lu bei","namePinyin":"bei yuan lu bei","lon":116.418089,"lat":40.030436},"beijing:立水桥南":{"id":"beijing:立水桥南","nameZh":"立水桥南","nameEn":"li shui qiao nan","namePinyin":"li shui qiao nan","lon":116.414496,"lat":40.041956},"beijing:立水桥":{"id":"beijing:立水桥","nameZh":"立水桥","nameEn":"li shui qiao","namePinyin":"li shui qiao","lon":116.41235,"lat":40.053032},"beijing:天通苑南":{"id":"beijing:天通苑南","nameZh":"天通苑南","nameEn":"tian tong yuan nan","namePinyin":"tian tong yuan nan","lon":116.412661,"lat":40.066458},"beijing:天通苑":{"id":"beijing:天通苑","nameZh":"天通苑","nameEn":"Tian Tong Yuan","namePinyin":"tian tong yuan","lon":116.41289,"lat":40.075248},"beijing:天通苑北":{"id":"beijing:天通苑北","nameZh":"天通苑北","nameEn":"tian tong yuan bei","namePinyin":"tian tong yuan bei","lon":116.412888,"lat":40.083668},"beijing:潞阳":{"id":"beijing:潞阳","nameZh":"潞阳","nameEn":"Lu Yang","namePinyin":"lu yang","lon":116.757063,"lat":39.890059},"beijing:潞城":{"id":"beijing:潞城","nameZh":"潞城","nameEn":"lu cheng","namePinyin":"lu cheng","lon":116.747434,"lat":39.902652},"beijing:东夏园":{"id":"beijing:东夏园","nameZh":"东夏园","nameEn":"dong xia yuan","namePinyin":"dong xia yuan","lon":116.73385,"lat":39.903147},"beijing:郝家府":{"id":"beijing:郝家府","nameZh":"郝家府","nameEn":"hao jia fu","namePinyin":"hao jia fu","lon":116.717826,"lat":39.903195},"beijing:北运河东":{"id":"beijing:北运河东","nameZh":"北运河东","nameEn":"bei yun he dong","namePinyin":"bei yun he dong","lon":116.707056,"lat":39.903268},"beijing:北运河西":{"id":"beijing:北运河西","nameZh":"北运河西","nameEn":"bei yun he xi","namePinyin":"bei yun he xi","lon":116.688358,"lat":39.903024},"beijing:通运门":{"id":"beijing:通运门","nameZh":"通运门","nameEn":"Tong Yun Men","namePinyin":"tong yun men","lon":116.671929,"lat":39.91166},"beijing:通州北关":{"id":"beijing:通州北关","nameZh":"通州北关","nameEn":"tong zhou bei guan","namePinyin":"tong zhou bei guan","lon":116.661131,"lat":39.917962},"beijing:物资学院路":{"id":"beijing:物资学院路","nameZh":"物资学院路","nameEn":"wu zi xue yuan lu","namePinyin":"wu zi xue yuan lu","lon":116.639316,"lat":39.926801},"beijing:草房":{"id":"beijing:草房","nameZh":"草房","nameEn":"cao fang","namePinyin":"cao fang","lon":116.615574,"lat":39.924477},"beijing:常营":{"id":"beijing:常营","nameZh":"常营","nameEn":"chang ying","namePinyin":"chang ying","lon":116.599722,"lat":39.925696},"beijing:黄渠":{"id":"beijing:黄渠","nameZh":"黄渠","nameEn":"huang qu","namePinyin":"huang qu","lon":116.578266,"lat":39.924201},"beijing:褡裢坡":{"id":"beijing:褡裢坡","nameZh":"褡裢坡","nameEn":"da lian po","namePinyin":"da lian po","lon":116.563961,"lat":39.924021},"beijing:青年路":{"id":"beijing:青年路","nameZh":"青年路","nameEn":"qing nian lu","namePinyin":"qing nian lu","lon":116.517429,"lat":39.923168},"beijing:十里堡":{"id":"beijing:十里堡","nameZh":"十里堡","nameEn":"shi li bao","namePinyin":"shi li bao","lon":116.502045,"lat":39.923076},"beijing:金台路":{"id":"beijing:金台路","nameZh":"金台路","nameEn":"Jin Tai Lu","namePinyin":"jin tai lu","lon":116.478115,"lat":39.923556},"beijing:呼家楼":{"id":"beijing:呼家楼","nameZh":"呼家楼","nameEn":"hu jia lou","namePinyin":"hu jia lou","lon":116.461618,"lat":39.923337},"beijing:东大桥":{"id":"beijing:东大桥","nameZh":"东大桥","nameEn":"Dong Da Qiao","namePinyin":"dong da qiao","lon":116.450379,"lat":39.922852},"beijing:南锣鼓巷":{"id":"beijing:南锣鼓巷","nameZh":"南锣鼓巷","nameEn":"nan luo gu xiang","namePinyin":"nan luo gu xiang","lon":116.404192,"lat":39.933848},"beijing:北海北":{"id":"beijing:北海北","nameZh":"北海北","nameEn":"bei hai bei","namePinyin":"bei hai bei","lon":116.386829,"lat":39.933247},"beijing:车公庄西":{"id":"beijing:车公庄西","nameZh":"车公庄西","nameEn":"Che Gong Zhuang Xi","namePinyin":"che gong zhuang xi","lon":116.344082,"lat":39.932466},"beijing:二里沟":{"id":"beijing:二里沟","nameZh":"二里沟","nameEn":"Er Li Gou","namePinyin":"er li gou","lon":116.333701,"lat":39.93241},"beijing:白石桥南":{"id":"beijing:白石桥南","nameZh":"白石桥南","nameEn":"bai shi qiao nan","namePinyin":"bai shi qiao nan","lon":116.32568,"lat":39.933022},"beijing:花园桥":{"id":"beijing:花园桥","nameZh":"花园桥","nameEn":"hua yuan qiao","namePinyin":"hua yuan qiao","lon":116.310683,"lat":39.93234},"beijing:慈寿寺":{"id":"beijing:慈寿寺","nameZh":"慈寿寺","nameEn":"ci shou si","namePinyin":"ci shou si","lon":116.295467,"lat":39.933268},"beijing:海淀五路居":{"id":"beijing:海淀五路居","nameZh":"海淀五路居","nameEn":"hai dian wu lu ju","namePinyin":"hai dian wu lu ju","lon":116.276531,"lat":39.932584},"beijing:田村":{"id":"beijing:田村","nameZh":"田村","nameEn":"tian cun","namePinyin":"tian cun","lon":116.252914,"lat":39.929503},"beijing:廖公庄":{"id":"beijing:廖公庄","nameZh":"廖公庄","nameEn":"liao gong zhuang","namePinyin":"liao gong zhuang","lon":116.227292,"lat":39.932422},"beijing:西黄村":{"id":"beijing:西黄村","nameZh":"西黄村","nameEn":"xi huang cun","namePinyin":"xi huang cun","lon":116.206932,"lat":39.933605},"beijing:杨庄":{"id":"beijing:杨庄","nameZh":"杨庄","nameEn":"yang zhuang","namePinyin":"yang zhuang","lon":116.187004,"lat":39.92785},"beijing:高楼金":{"id":"beijing:高楼金","nameZh":"高楼金","nameEn":"Gao Lou Jin","namePinyin":"gao lou jin","lon":116.68434,"lat":39.863154},"beijing:群芳":{"id":"beijing:群芳","nameZh":"群芳","nameEn":"Qun Fang","namePinyin":"qun fang","lon":116.670792,"lat":39.863515},"beijing:万盛东":{"id":"beijing:万盛东","nameZh":"万盛东","nameEn":"Wan Sheng Dong","namePinyin":"wan sheng dong","lon":116.657379,"lat":39.863491},"beijing:万盛西":{"id":"beijing:万盛西","nameZh":"万盛西","nameEn":"Wan Sheng Xi","namePinyin":"wan sheng xi","lon":116.63216,"lat":39.863328},"beijing:黑庄户":{"id":"beijing:黑庄户","nameZh":"黑庄户","nameEn":"Hei Zhuang Hu","namePinyin":"hei zhuang hu","lon":116.599119,"lat":39.858725},"beijing:郎辛庄":{"id":"beijing:郎辛庄","nameZh":"郎辛庄","nameEn":"Lang Xin Zhuang","namePinyin":"lang xin zhuang","lon":116.569826,"lat":39.856496},"beijing:黄厂":{"id":"beijing:黄厂","nameZh":"黄厂","nameEn":"Huang Chang","namePinyin":"huang chang","lon":116.553759,"lat":39.848979},"beijing:焦化厂":{"id":"beijing:焦化厂","nameZh":"焦化厂","nameEn":"jiao hua chang","namePinyin":"jiao hua chang","lon":116.537247,"lat":39.855488},"beijing:双合":{"id":"beijing:双合","nameZh":"双合","nameEn":"shuang he","namePinyin":"shuang he","lon":116.526836,"lat":39.859691},"beijing:垡头":{"id":"beijing:垡头","nameZh":"垡头","nameEn":"fa tou","namePinyin":"fa tou","lon":116.511821,"lat":39.860728},"beijing:欢乐谷景区":{"id":"beijing:欢乐谷景区","nameZh":"欢乐谷景区","nameEn":"huan le gu jing qu","namePinyin":"huan le gu jing qu","lon":116.500067,"lat":39.866505},"beijing:南楼梓庄":{"id":"beijing:南楼梓庄","nameZh":"南楼梓庄","nameEn":"nan lou zi zhuang","namePinyin":"nan lou zi zhuang","lon":116.501084,"lat":39.874578},"beijing:化工":{"id":"beijing:化工","nameZh":"化工","nameEn":"hua gong","namePinyin":"hua gong","lon":116.503439,"lat":39.887369},"beijing:百子湾":{"id":"beijing:百子湾","nameZh":"百子湾","nameEn":"bai zi wan","namePinyin":"bai zi wan","lon":116.497768,"lat":39.89253},"beijing:大郊亭":{"id":"beijing:大郊亭","nameZh":"大郊亭","nameEn":"da jiao ting","namePinyin":"da jiao ting","lon":116.487935,"lat":39.893183},"beijing:九龙山":{"id":"beijing:九龙山","nameZh":"九龙山","nameEn":"Jiu Long Shan","namePinyin":"jiu long shan","lon":116.478879,"lat":39.89321},"beijing:双井":{"id":"beijing:双井","nameZh":"双井","nameEn":"Shuang Jing","namePinyin":"shuang jing","lon":116.461834,"lat":39.893512},"beijing:广渠门外":{"id":"beijing:广渠门外","nameZh":"广渠门外","nameEn":"guang qu men wai","namePinyin":"guang qu men wai","lon":116.448998,"lat":39.893648},"beijing:广渠门内":{"id":"beijing:广渠门内","nameZh":"广渠门内","nameEn":"guang qu men nei","namePinyin":"guang qu men nei","lon":116.433877,"lat":39.893673},"beijing:桥湾":{"id":"beijing:桥湾","nameZh":"桥湾","nameEn":"qiao wan","namePinyin":"qiao wan","lon":116.408464,"lat":39.892725},"beijing:珠市口":{"id":"beijing:珠市口","nameZh":"珠市口","nameEn":"Zhu Shi Kou","namePinyin":"zhu shi kou","lon":116.398372,"lat":39.891334},"beijing:虎坊桥":{"id":"beijing:虎坊桥","nameZh":"虎坊桥","nameEn":"hu fang qiao","namePinyin":"hu fang qiao","lon":116.384596,"lat":39.889486},"beijing:广安门内":{"id":"beijing:广安门内","nameZh":"广安门内","nameEn":"guang an men nei","namePinyin":"guang an men nei","lon":116.358239,"lat":39.889418},"beijing:达官营":{"id":"beijing:达官营","nameZh":"达官营","nameEn":"Da Guan Ying","namePinyin":"da guan ying","lon":116.335608,"lat":39.889898},"beijing:湾子":{"id":"beijing:湾子","nameZh":"湾子","nameEn":"wan zi","namePinyin":"wan zi","lon":116.327753,"lat":39.889954},"beijing:北京西站":{"id":"beijing:北京西站","nameZh":"北京西站","nameEn":"bei jing xi zhan","namePinyin":"bei jing xi zhan","lon":116.321218,"lat":39.894706},"beijing:瀛海":{"id":"beijing:瀛海","nameZh":"瀛海","nameEn":"Ying Hai","namePinyin":"ying hai","lon":116.448982,"lat":39.760713},"beijing:德茂":{"id":"beijing:德茂","nameZh":"德茂","nameEn":"De Mao","namePinyin":"de mao","lon":116.441467,"lat":39.772649},"beijing:五福堂":{"id":"beijing:五福堂","nameZh":"五福堂","nameEn":"Wu Fu Tang","namePinyin":"wu fu tang","lon":116.423903,"lat":39.785046},"beijing:火箭万源":{"id":"beijing:火箭万源","nameZh":"火箭万源","nameEn":"Huo Jian Wan Yuan","namePinyin":"huo jian wan yuan","lon":116.418627,"lat":39.799287},"beijing:东高地":{"id":"beijing:东高地","nameZh":"东高地","nameEn":"Dong Gao Di","namePinyin":"dong gao di","lon":116.409427,"lat":39.805074},"beijing:和义":{"id":"beijing:和义","nameZh":"和义","nameEn":"He Yi","namePinyin":"he yi","lon":116.402073,"lat":39.814838},"beijing:大红门南":{"id":"beijing:大红门南","nameZh":"大红门南","nameEn":"Da Hong Men Nan","namePinyin":"da hong men nan","lon":116.401045,"lat":39.836715},"beijing:大红门":{"id":"beijing:大红门","nameZh":"大红门","nameEn":"Da Hong Men","namePinyin":"da hong men","lon":116.399154,"lat":39.845383},"beijing:海户屯":{"id":"beijing:海户屯","nameZh":"海户屯","nameEn":"Hai Hu Tun","namePinyin":"hai hu tun","lon":116.400301,"lat":39.851805},"beijing:木樨园":{"id":"beijing:木樨园","nameZh":"木樨园","nameEn":"Mu Xi Yuan","namePinyin":"mu xi yuan","lon":116.399839,"lat":39.859262},"beijing:永定门外":{"id":"beijing:永定门外","nameZh":"永定门外","nameEn":"Yong Ding Men Wai","namePinyin":"yong ding men wai","lon":116.399369,"lat":39.867435},"beijing:天桥":{"id":"beijing:天桥","nameZh":"天桥","nameEn":"Tian Qiao","namePinyin":"tian qiao","lon":116.398712,"lat":39.88192},"beijing:金鱼胡同":{"id":"beijing:金鱼胡同","nameZh":"金鱼胡同","nameEn":"Jin Yu Hu Tong","namePinyin":"jin yu hu tong","lon":116.411178,"lat":39.915387},"beijing:中国美术馆":{"id":"beijing:中国美术馆","nameZh":"中国美术馆","nameEn":"zhong guo mei shu guan","namePinyin":"zhong guo mei shu guan","lon":116.410803,"lat":39.923705},"beijing:什刹海":{"id":"beijing:什刹海","nameZh":"什刹海","nameEn":"shi cha hai","namePinyin":"shi cha hai","lon":116.396219,"lat":39.937583},"beijing:安德里北街":{"id":"beijing:安德里北街","nameZh":"安德里北街","nameEn":"an de li bei jie","namePinyin":"an de li bei jie","lon":116.395145,"lat":39.957227},"beijing:安华桥":{"id":"beijing:安华桥","nameZh":"安华桥","nameEn":"An Hua Qiao","namePinyin":"an hua qiao","lon":116.394159,"lat":39.968653},"beijing:北土城":{"id":"beijing:北土城","nameZh":"北土城","nameEn":"bei tu cheng","namePinyin":"bei tu cheng","lon":116.394193,"lat":39.976953},"beijing:奥体中心":{"id":"beijing:奥体中心","nameZh":"奥体中心","nameEn":"ao ti zhong xin","namePinyin":"ao ti zhong xin","lon":116.393759,"lat":39.985837},"beijing:奥林匹克公园":{"id":"beijing:奥林匹克公园","nameZh":"奥林匹克公园","nameEn":"ao lin pi ke gong yuan","namePinyin":"ao lin pi ke gong yuan","lon":116.391758,"lat":40.002207},"beijing:森林公园南门":{"id":"beijing:森林公园南门","nameZh":"森林公园南门","nameEn":"sen lin gong yuan nan men","namePinyin":"sen lin gong yuan nan men","lon":116.3926,"lat":40.010122},"beijing:林萃桥":{"id":"beijing:林萃桥","nameZh":"林萃桥","nameEn":"lin cui qiao","namePinyin":"lin cui qiao","lon":116.372998,"lat":40.021906},"beijing:永泰庄":{"id":"beijing:永泰庄","nameZh":"永泰庄","nameEn":"yong tai zhuang","namePinyin":"yong tai zhuang","lon":116.35458,"lat":40.037728},"beijing:西小口":{"id":"beijing:西小口","nameZh":"西小口","nameEn":"xi xiao kou","namePinyin":"xi xiao kou","lon":116.351644,"lat":40.046873},"beijing:育新":{"id":"beijing:育新","nameZh":"育新","nameEn":"yu xin","namePinyin":"yu xin","lon":116.347328,"lat":40.060039},"beijing:霍营":{"id":"beijing:霍营","nameZh":"霍营","nameEn":"Huo Ying","namePinyin":"huo ying","lon":116.360286,"lat":40.071857},"beijing:回龙观东大街":{"id":"beijing:回龙观东大街","nameZh":"回龙观东大街","nameEn":"Hui Long Guan Dong Da Jie","namePinyin":"hui long guan dong da jie","lon":116.363027,"lat":40.081194},"beijing:平西府":{"id":"beijing:平西府","nameZh":"平西府","nameEn":"ping xi fu","namePinyin":"ping xi fu","lon":116.350425,"lat":40.090607},"beijing:育知路":{"id":"beijing:育知路","nameZh":"育知路","nameEn":"yu zhi lu","namePinyin":"yu zhi lu","lon":116.326992,"lat":40.087863},"beijing:朱辛庄":{"id":"beijing:朱辛庄","nameZh":"朱辛庄","nameEn":"zhu xin zhuang","namePinyin":"zhu xin zhuang","lon":116.313698,"lat":40.104297},"beijing:郭公庄":{"id":"beijing:郭公庄","nameZh":"郭公庄","nameEn":"Guo Gong Zhuang","namePinyin":"guo gong zhuang","lon":116.301889,"lat":39.814322},"beijing:丰台科技园":{"id":"beijing:丰台科技园","nameZh":"丰台科技园","nameEn":"Feng Tai Ke Ji Yuan","namePinyin":"feng tai ke ji yuan","lon":116.297176,"lat":39.825233},"beijing:科怡路":{"id":"beijing:科怡路","nameZh":"科怡路","nameEn":"Ke Yi Lu","namePinyin":"ke yi lu","lon":116.297432,"lat":39.83248},"beijing:丰台南路":{"id":"beijing:丰台南路","nameZh":"丰台南路","nameEn":"Feng Tai Nan Lu","namePinyin":"feng tai nan lu","lon":116.296552,"lat":39.841106},"beijing:丰台东大街":{"id":"beijing:丰台东大街","nameZh":"丰台东大街","nameEn":"Feng Tai Dong Da Jie","namePinyin":"feng tai dong da jie","lon":116.293857,"lat":39.855111},"beijing:七里庄":{"id":"beijing:七里庄","nameZh":"七里庄","nameEn":"Qi Li Zhuang","namePinyin":"qi li zhuang","lon":116.294293,"lat":39.866981},"beijing:六里桥":{"id":"beijing:六里桥","nameZh":"六里桥","nameEn":"liu li qiao","namePinyin":"liu li qiao","lon":116.302808,"lat":39.880239},"beijing:六里桥东":{"id":"beijing:六里桥东","nameZh":"六里桥东","nameEn":"liu li qiao dong","namePinyin":"liu li qiao dong","lon":116.315142,"lat":39.886886},"beijing:白堆子":{"id":"beijing:白堆子","nameZh":"白堆子","nameEn":"bai dui zi","namePinyin":"bai dui zi","lon":116.325762,"lat":39.923818},"beijing:巴沟":{"id":"beijing:巴沟","nameZh":"巴沟","nameEn":"Ba Gou","namePinyin":"ba gou","lon":116.293357,"lat":39.974414},"beijing:苏州街":{"id":"beijing:苏州街","nameZh":"苏州街","nameEn":"Su Zhou Jie","namePinyin":"su zhou jie","lon":116.306332,"lat":39.975642},"beijing:知春里":{"id":"beijing:知春里","nameZh":"知春里","nameEn":"zhi chun li","namePinyin":"zhi chun li","lon":116.328709,"lat":39.976334},"beijing:知春路":{"id":"beijing:知春路","nameZh":"知春路","nameEn":"Zhi Chun Lu","namePinyin":"zhi chun lu","lon":116.33996,"lat":39.976476},"beijing:西土城":{"id":"beijing:西土城","nameZh":"西土城","nameEn":"Xi Tu Cheng","namePinyin":"xi tu cheng","lon":116.354314,"lat":39.976372},"beijing:牡丹园":{"id":"beijing:牡丹园","nameZh":"牡丹园","nameEn":"Mu Dan Yuan","namePinyin":"mu dan yuan","lon":116.369844,"lat":39.976603},"beijing:健德门":{"id":"beijing:健德门","nameZh":"健德门","nameEn":"jian de men","namePinyin":"jian de men","lon":116.381353,"lat":39.976723},"beijing:安贞门":{"id":"beijing:安贞门","nameZh":"安贞门","nameEn":"an zhen men","namePinyin":"an zhen men","lon":116.405954,"lat":39.977005},"beijing:芍药居":{"id":"beijing:芍药居","nameZh":"芍药居","nameEn":"shao yao ju","namePinyin":"shao yao ju","lon":116.435914,"lat":39.977636},"beijing:太阳宫":{"id":"beijing:太阳宫","nameZh":"太阳宫","nameEn":"Tai Yang Gong","namePinyin":"tai yang gong","lon":116.448213,"lat":39.973816},"beijing:三元桥":{"id":"beijing:三元桥","nameZh":"三元桥","nameEn":"San Yuan Qiao","namePinyin":"san yuan qiao","lon":116.456997,"lat":39.961508},"beijing:亮马桥":{"id":"beijing:亮马桥","nameZh":"亮马桥","nameEn":"liang ma qiao","namePinyin":"liang ma qiao","lon":116.461794,"lat":39.949415},"beijing:农业展览馆":{"id":"beijing:农业展览馆","nameZh":"农业展览馆","nameEn":"nong ye zhan lan guan","namePinyin":"nong ye zhan lan guan","lon":116.461724,"lat":39.941344},"beijing:金台夕照":{"id":"beijing:金台夕照","nameZh":"金台夕照","nameEn":"jin tai xi zhao","namePinyin":"jin tai xi zhao","lon":116.461743,"lat":39.916838},"beijing:劲松":{"id":"beijing:劲松","nameZh":"劲松","nameEn":"jin song","namePinyin":"jin song","lon":116.461325,"lat":39.884387},"beijing:潘家园":{"id":"beijing:潘家园","nameZh":"潘家园","nameEn":"pan jia yuan","namePinyin":"pan jia yuan","lon":116.460926,"lat":39.875387},"beijing:十里河":{"id":"beijing:十里河","nameZh":"十里河","nameEn":"Shi Li He","namePinyin":"shi li he","lon":116.458103,"lat":39.866135},"beijing:分钟寺":{"id":"beijing:分钟寺","nameZh":"分钟寺","nameEn":"fen zhong si","namePinyin":"fen zhong si","lon":116.453976,"lat":39.852227},"beijing:成寿寺":{"id":"beijing:成寿寺","nameZh":"成寿寺","nameEn":"cheng shou si","namePinyin":"cheng shou si","lon":116.447531,"lat":39.845874},"beijing:石榴庄":{"id":"beijing:石榴庄","nameZh":"石榴庄","nameEn":"shi liu zhuang","namePinyin":"shi liu zhuang","lon":116.414103,"lat":39.845905},"beijing:角门东":{"id":"beijing:角门东","nameZh":"角门东","nameEn":"jiao men dong","namePinyin":"jiao men dong","lon":116.385649,"lat":39.845135},"beijing:草桥":{"id":"beijing:草桥","nameZh":"草桥","nameEn":"Cao Qiao","namePinyin":"cao qiao","lon":116.351387,"lat":39.845869},"beijing:纪家庙":{"id":"beijing:纪家庙","nameZh":"纪家庙","nameEn":"ji jia miao","namePinyin":"ji jia miao","lon":116.333381,"lat":39.844433},"beijing:首经贸":{"id":"beijing:首经贸","nameZh":"首经贸","nameEn":"Shou Jing Mao","namePinyin":"shou jing mao","lon":116.320202,"lat":39.844463},"beijing:丰台站":{"id":"beijing:丰台站","nameZh":"丰台站","nameEn":"Feng Tai Zhan","namePinyin":"feng tai zhan","lon":116.304501,"lat":39.850249},"beijing:泥洼":{"id":"beijing:泥洼","nameZh":"泥洼","nameEn":"ni wa","namePinyin":"ni wa","lon":116.304173,"lat":39.858609},"beijing:西局":{"id":"beijing:西局","nameZh":"西局","nameEn":"Xi Ju","namePinyin":"xi ju","lon":116.304106,"lat":39.866676},"beijing:莲花桥":{"id":"beijing:莲花桥","nameZh":"莲花桥","nameEn":"lian hua qiao","namePinyin":"lian hua qiao","lon":116.310347,"lat":39.897867},"beijing:西钓鱼台":{"id":"beijing:西钓鱼台","nameZh":"西钓鱼台","nameEn":"xi diao yu tai","namePinyin":"xi diao yu tai","lon":116.298064,"lat":39.923481},"beijing:车道沟":{"id":"beijing:车道沟","nameZh":"车道沟","nameEn":"che dao gou","namePinyin":"che dao gou","lon":116.293818,"lat":39.947923},"beijing:长春桥":{"id":"beijing:长春桥","nameZh":"长春桥","nameEn":"Chang Chun Qiao","namePinyin":"chang chun qiao","lon":116.294255,"lat":39.958527},"beijing:火器营":{"id":"beijing:火器营","nameZh":"火器营","nameEn":"huo qi ying","namePinyin":"huo qi ying","lon":116.289058,"lat":39.965938},"beijing:模式口":{"id":"beijing:模式口","nameZh":"模式口","nameEn":"Mo Shi Kou","namePinyin":"mo shi kou","lon":116.156148,"lat":39.933369},"beijing:北辛安":{"id":"beijing:北辛安","nameZh":"北辛安","nameEn":"Bei Xin An","namePinyin":"bei xin an","lon":116.164755,"lat":39.915456},"beijing:新首钢":{"id":"beijing:新首钢","nameZh":"新首钢","nameEn":"Xin Shou Gang","namePinyin":"xin shou gang","lon":116.164806,"lat":39.90961},"beijing:东坝西":{"id":"beijing:东坝西","nameZh":"东坝西","nameEn":"Dong Ba Xi","namePinyin":"dong ba xi","lon":116.534671,"lat":39.97427},"beijing:驼房营":{"id":"beijing:驼房营","nameZh":"驼房营","nameEn":"Tuo Fang Ying","namePinyin":"tuo fang ying","lon":116.505628,"lat":39.980439},"beijing:高家园":{"id":"beijing:高家园","nameZh":"高家园","nameEn":"Gao Jia Yuan","namePinyin":"gao jia yuan","lon":116.491552,"lat":39.980373},"beijing:将台西":{"id":"beijing:将台西","nameZh":"将台西","nameEn":"Jiang Tai Xi","namePinyin":"jiang tai xi","lon":116.480045,"lat":39.972663},"beijing:西坝河":{"id":"beijing:西坝河","nameZh":"西坝河","nameEn":"Xi Ba He","namePinyin":"xi ba he","lon":116.442254,"lat":39.96571},"beijing:光熙门":{"id":"beijing:光熙门","nameZh":"光熙门","nameEn":"Guang Xi Men","namePinyin":"guang xi men","lon":116.431761,"lat":39.968337},"beijing:安贞桥":{"id":"beijing:安贞桥","nameZh":"安贞桥","nameEn":"An Zhen Qiao","namePinyin":"an zhen qiao","lon":116.407219,"lat":39.968912},"beijing:马甸桥":{"id":"beijing:马甸桥","nameZh":"马甸桥","nameEn":"Ma Dian Qiao","namePinyin":"ma dian qiao","lon":116.382214,"lat":39.968261},"beijing:北太平庄":{"id":"beijing:北太平庄","nameZh":"北太平庄","nameEn":"Bei Tai Ping Zhuang","namePinyin":"bei tai ping zhuang","lon":116.370037,"lat":39.967882},"beijing:蓟门桥":{"id":"beijing:蓟门桥","nameZh":"蓟门桥","nameEn":"Ji Men Qiao","namePinyin":"ji men qiao","lon":116.35597,"lat":39.967747},"beijing:大钟寺":{"id":"beijing:大钟寺","nameZh":"大钟寺","nameEn":"Da Zhong Si","namePinyin":"da zhong si","lon":116.345139,"lat":39.966612},"beijing:苏州桥":{"id":"beijing:苏州桥","nameZh":"苏州桥","nameEn":"Su Zhou Qiao","namePinyin":"su zhou qiao","lon":116.307831,"lat":39.962314},"beijing:蓝靛厂":{"id":"beijing:蓝靛厂","nameZh":"蓝靛厂","nameEn":"Lan Dian Chang","namePinyin":"lan dian chang","lon":116.282593,"lat":39.957117},"beijing:四季青桥":{"id":"beijing:四季青桥","nameZh":"四季青桥","nameEn":"Si Ji Qing Qiao","namePinyin":"si ji qing qiao","lon":116.274193,"lat":39.942414},"beijing:五道口":{"id":"beijing:五道口","nameZh":"五道口","nameEn":"wu dao kou","namePinyin":"wu dao kou","lon":116.337742,"lat":39.992894},"beijing:上地":{"id":"beijing:上地","nameZh":"上地","nameEn":"shang di","namePinyin":"shang di","lon":116.320193,"lat":40.033007},"beijing:清河站":{"id":"beijing:清河站","nameZh":"清河站","nameEn":"Qing He Zhan","namePinyin":"qing he zhan","lon":116.314961,"lat":40.041164},"beijing:西二旗":{"id":"beijing:西二旗","nameZh":"西二旗","nameEn":"Xi Er Qi","namePinyin":"xi er qi","lon":116.306295,"lat":40.053034},"beijing:龙泽":{"id":"beijing:龙泽","nameZh":"龙泽","nameEn":"long ze","namePinyin":"long ze","lon":116.319429,"lat":40.070882},"beijing:回龙观":{"id":"beijing:回龙观","nameZh":"回龙观","nameEn":"hui long guan","namePinyin":"hui long guan","lon":116.336116,"lat":40.0708},"beijing:北苑":{"id":"beijing:北苑","nameZh":"北苑","nameEn":"bei yuan","namePinyin":"bei yuan","lon":116.434518,"lat":40.042997},"beijing:望京西":{"id":"beijing:望京西","nameZh":"望京西","nameEn":"Wang Jing Xi","namePinyin":"wang jing xi","lon":116.447987,"lat":39.99416},"beijing:柳芳":{"id":"beijing:柳芳","nameZh":"柳芳","nameEn":"liu fang","namePinyin":"liu fang","lon":116.432728,"lat":39.958157},"beijing:善各庄":{"id":"beijing:善各庄","nameZh":"善各庄","nameEn":"Shan Ge Zhuang","namePinyin":"shan ge zhuang","lon":116.478195,"lat":40.02716},"beijing:来广营":{"id":"beijing:来广营","nameZh":"来广营","nameEn":"Lai Guang Ying","namePinyin":"lai guang ying","lon":116.466999,"lat":40.02043},"beijing:东湖渠":{"id":"beijing:东湖渠","nameZh":"东湖渠","nameEn":"Dong Hu Qu","namePinyin":"dong hu qu","lon":116.467415,"lat":40.010566},"beijing:望京":{"id":"beijing:望京","nameZh":"望京","nameEn":"Wang Jing","namePinyin":"wang jing","lon":116.469409,"lat":39.998521},"beijing:阜通":{"id":"beijing:阜通","nameZh":"阜通","nameEn":"Fu Tong","namePinyin":"fu tong","lon":116.471544,"lat":39.991835},"beijing:望京南":{"id":"beijing:望京南","nameZh":"望京南","nameEn":"Wang Jing Nan","namePinyin":"wang jing nan","lon":116.48188,"lat":39.98467},"beijing:将台":{"id":"beijing:将台","nameZh":"将台","nameEn":"Jiang Tai","namePinyin":"jiang tai","lon":116.490213,"lat":39.971026},"beijing:东风北桥":{"id":"beijing:东风北桥","nameZh":"东风北桥","nameEn":"Dong Feng Bei Qiao","namePinyin":"dong feng bei qiao","lon":116.485919,"lat":39.958375},"beijing:枣营":{"id":"beijing:枣营","nameZh":"枣营","nameEn":"Zao Ying","namePinyin":"zao ying","lon":116.474947,"lat":39.944132},"beijing:平乐园":{"id":"beijing:平乐园","nameZh":"平乐园","nameEn":"Ping Le Yuan","namePinyin":"ping le yuan","lon":116.477307,"lat":39.885275},"beijing:北工大西门":{"id":"beijing:北工大西门","nameZh":"北工大西门","nameEn":"Bei Gong Da Xi Men","namePinyin":"bei gong da xi men","lon":116.477282,"lat":39.875294},"beijing:方庄":{"id":"beijing:方庄","nameZh":"方庄","nameEn":"Fang Zhuang","namePinyin":"fang zhuang","lon":116.440244,"lat":39.865864},"beijing:景泰":{"id":"beijing:景泰","nameZh":"景泰","nameEn":"Jing Tai","namePinyin":"jing tai","lon":116.411026,"lat":39.86525},"beijing:景风门":{"id":"beijing:景风门","nameZh":"景风门","nameEn":"Jing Feng Men","namePinyin":"jing feng men","lon":116.366033,"lat":39.862631},"beijing:西铁营":{"id":"beijing:西铁营","nameZh":"西铁营","nameEn":"Xi Tie Ying","namePinyin":"xi tie ying","lon":116.355953,"lat":39.861358},"beijing:菜户营":{"id":"beijing:菜户营","nameZh":"菜户营","nameEn":"Cai Hu Ying","namePinyin":"cai hu ying","lon":116.342444,"lat":39.867627},"beijing:丽泽商务区":{"id":"beijing:丽泽商务区","nameZh":"丽泽商务区","nameEn":"Li Ze Shang Wu Qu","namePinyin":"li ze shang wu qu","lon":116.331268,"lat":39.867718},"beijing:东管头":{"id":"beijing:东管头","nameZh":"东管头","nameEn":"Dong Guan Tou","namePinyin":"dong guan tou","lon":116.321197,"lat":39.86757},"beijing:大井":{"id":"beijing:大井","nameZh":"大井","nameEn":"Da Jing","namePinyin":"da jing","lon":116.276061,"lat":39.865226},"beijing:郭庄子":{"id":"beijing:郭庄子","nameZh":"郭庄子","nameEn":"Guo Zhuang Zi","namePinyin":"guo zhuang zi","lon":116.253068,"lat":39.864841},"beijing:大瓦窑":{"id":"beijing:大瓦窑","nameZh":"大瓦窑","nameEn":"Da Wa Yao","namePinyin":"da wa yao","lon":116.24048,"lat":39.85947},"beijing:园博园":{"id":"beijing:园博园","nameZh":"园博园","nameEn":"Yuan Bo Yuan","namePinyin":"yuan bo yuan","lon":116.201643,"lat":39.861328},"beijing:张郭庄":{"id":"beijing:张郭庄","nameZh":"张郭庄","nameEn":"Zhang Guo Zhuang","namePinyin":"zhang guo zhuang","lon":116.187193,"lat":39.8581},"beijing:俸伯":{"id":"beijing:俸伯","nameZh":"俸伯","nameEn":"feng bo","namePinyin":"feng bo","lon":116.684732,"lat":40.132573},"beijing:顺义":{"id":"beijing:顺义","nameZh":"顺义","nameEn":"shun yi","namePinyin":"shun yi","lon":116.657023,"lat":40.129994},"beijing:石门":{"id":"beijing:石门","nameZh":"石门","nameEn":"shi men","namePinyin":"shi men","lon":116.641117,"lat":40.129802},"beijing:南法信":{"id":"beijing:南法信","nameZh":"南法信","nameEn":"nan fa xin","namePinyin":"nan fa xin","lon":116.609535,"lat":40.128478},"beijing:后沙峪":{"id":"beijing:后沙峪","nameZh":"后沙峪","nameEn":"hou sha yu","namePinyin":"hou sha yu","lon":116.564211,"lat":40.114127},"beijing:花梨坎":{"id":"beijing:花梨坎","nameZh":"花梨坎","nameEn":"hua li kan","namePinyin":"hua li kan","lon":116.557593,"lat":40.084436},"beijing:国展":{"id":"beijing:国展","nameZh":"国展","nameEn":"guo zhan","namePinyin":"guo zhan","lon":116.555127,"lat":40.07003},"beijing:孙河":{"id":"beijing:孙河","nameZh":"孙河","nameEn":"sun he","namePinyin":"sun he","lon":116.5347,"lat":40.045113},"beijing:马泉营":{"id":"beijing:马泉营","nameZh":"马泉营","nameEn":"ma quan ying","namePinyin":"ma quan ying","lon":116.50348,"lat":40.033721},"beijing:崔各庄":{"id":"beijing:崔各庄","nameZh":"崔各庄","nameEn":"cui ge zhuang","namePinyin":"cui ge zhuang","lon":116.492968,"lat":40.022201},"beijing:望京东":{"id":"beijing:望京东","nameZh":"望京东","nameEn":"wang jing dong","namePinyin":"wang jing dong","lon":116.487105,"lat":40.0032},"beijing:关庄":{"id":"beijing:关庄","nameZh":"关庄","nameEn":"guan zhuang","namePinyin":"guan zhuang","lon":116.430947,"lat":40.001134},"beijing:安立路":{"id":"beijing:安立路","nameZh":"安立路","nameEn":"an li lu","namePinyin":"an li lu","lon":116.407845,"lat":40.002619},"beijing:北沙滩":{"id":"beijing:北沙滩","nameZh":"北沙滩","nameEn":"bei sha tan","namePinyin":"bei sha tan","lon":116.368143,"lat":40.001492},"beijing:六道口":{"id":"beijing:六道口","nameZh":"六道口","nameEn":"Liu Dao Kou","namePinyin":"liu dao kou","lon":116.35275,"lat":40.000044},"beijing:清华东路西口":{"id":"beijing:清华东路西口","nameZh":"清华东路西口","nameEn":"qing hua dong lu xi kou","namePinyin":"qing hua dong lu xi kou","lon":116.33953,"lat":40.000673},"beijing:北安河":{"id":"beijing:北安河","nameZh":"北安河","nameEn":"bei an he","namePinyin":"bei an he","lon":116.130428,"lat":40.068128},"beijing:温阳路":{"id":"beijing:温阳路","nameZh":"温阳路","nameEn":"wen yang lu","namePinyin":"wen yang lu","lon":116.161361,"lat":40.068516},"beijing:稻香湖路":{"id":"beijing:稻香湖路","nameZh":"稻香湖路","nameEn":"dao xiang hu lu","namePinyin":"dao xiang hu lu","lon":116.188145,"lat":40.068936},"beijing:屯佃":{"id":"beijing:屯佃","nameZh":"屯佃","nameEn":"tun dian","namePinyin":"tun dian","lon":116.21585,"lat":40.068454},"beijing:永丰":{"id":"beijing:永丰","nameZh":"永丰","nameEn":"yong feng","namePinyin":"yong feng","lon":116.238481,"lat":40.071868},"beijing:永丰南":{"id":"beijing:永丰南","nameZh":"永丰南","nameEn":"yong feng nan","namePinyin":"yong feng nan","lon":116.248154,"lat":40.065575},"beijing:西北旺":{"id":"beijing:西北旺","nameZh":"西北旺","nameEn":"xi bei wang","namePinyin":"xi bei wang","lon":116.257923,"lat":40.048703},"beijing:马连洼":{"id":"beijing:马连洼","nameZh":"马连洼","nameEn":"Ma Lian Wa","namePinyin":"ma lian wa","lon":116.27428,"lat":40.032713},"beijing:农大南路":{"id":"beijing:农大南路","nameZh":"农大南路","nameEn":"nong da nan lu","namePinyin":"nong da nan lu","lon":116.282272,"lat":40.021398},"beijing:万泉河桥":{"id":"beijing:万泉河桥","nameZh":"万泉河桥","nameEn":"Wan Quan He Qiao","namePinyin":"wan quan he qiao","lon":116.300157,"lat":39.985067},"beijing:万寿寺":{"id":"beijing:万寿寺","nameZh":"万寿寺","nameEn":"Wan Shou Si","namePinyin":"wan shou si","lon":116.309904,"lat":39.947773},"beijing:甘家口":{"id":"beijing:甘家口","nameZh":"甘家口","nameEn":"Gan Jia Kou","namePinyin":"gan jia kou","lon":116.334534,"lat":39.923392},"beijing:玉渊潭东门":{"id":"beijing:玉渊潭东门","nameZh":"玉渊潭东门","nameEn":"Yu Yuan Tan Dong Men","namePinyin":"yu yuan tan dong men","lon":116.334546,"lat":39.914042},"beijing:红莲南路":{"id":"beijing:红莲南路","nameZh":"红莲南路","nameEn":"Hong Lian Nan Lu","namePinyin":"hong lian nan lu","lon":116.336668,"lat":39.877533},"beijing:东管头南":{"id":"beijing:东管头南","nameZh":"东管头南","nameEn":"Dong Guan Tou Nan","namePinyin":"dong guan tou nan","lon":116.323133,"lat":39.855638},"beijing:富丰桥":{"id":"beijing:富丰桥","nameZh":"富丰桥","nameEn":"Fu Feng Qiao","namePinyin":"fu feng qiao","lon":116.287023,"lat":39.836228},"beijing:看丹":{"id":"beijing:看丹","nameZh":"看丹","nameEn":"Kan Dan","namePinyin":"kan dan","lon":116.272519,"lat":39.83491},"beijing:榆树庄":{"id":"beijing:榆树庄","nameZh":"榆树庄","nameEn":"Yu Shu Zhuang","namePinyin":"yu shu zhuang","lon":116.258964,"lat":39.838742},"beijing:洪泰庄":{"id":"beijing:洪泰庄","nameZh":"洪泰庄","nameEn":"Hong Tai Zhuang","namePinyin":"hong tai zhuang","lon":116.249321,"lat":39.848538},"beijing:宛平城":{"id":"beijing:宛平城","nameZh":"宛平城","nameEn":"Wan Ping Cheng","namePinyin":"wan ping cheng","lon":116.229571,"lat":39.849056},"beijing:嘉会湖":{"id":"beijing:嘉会湖","nameZh":"嘉会湖","nameEn":"Jia Hui Hu","namePinyin":"jia hui hu","lon":116.610369,"lat":39.792902},"beijing:次渠":{"id":"beijing:次渠","nameZh":"次渠","nameEn":"Ci Qu","namePinyin":"ci qu","lon":116.591563,"lat":39.80355},"beijing:次渠北":{"id":"beijing:次渠北","nameZh":"次渠北","nameEn":"Ci Qu Bei","namePinyin":"ci qu bei","lon":116.57667,"lat":39.80939},"beijing:北神树":{"id":"beijing:北神树","nameZh":"北神树","nameEn":"Bei Shen Shu","namePinyin":"bei shen shu","lon":116.552736,"lat":39.818596},"beijing:十八里店":{"id":"beijing:十八里店","nameZh":"十八里店","nameEn":"Shi Ba Li Dian","namePinyin":"shi ba li dian","lon":116.495847,"lat":39.8443},"beijing:周家庄":{"id":"beijing:周家庄","nameZh":"周家庄","nameEn":"Zhou Jia Zhuang","namePinyin":"zhou jia zhuang","lon":116.476361,"lat":39.856706},"beijing:潘家园西":{"id":"beijing:潘家园西","nameZh":"潘家园西","nameEn":"Pan Jia Yuan Xi","namePinyin":"pan jia yuan xi","lon":116.450869,"lat":39.875272},"beijing:左家庄":{"id":"beijing:左家庄","nameZh":"左家庄","nameEn":"Zuo Jia Zhuang","namePinyin":"zuo jia zhuang","lon":116.44272,"lat":39.949968},"beijing:红军营":{"id":"beijing:红军营","nameZh":"红军营","nameEn":"Hong Jun Ying","namePinyin":"hong jun ying","lon":116.441797,"lat":40.033722},"beijing:清河营":{"id":"beijing:清河营","nameZh":"清河营","nameEn":"Qing He Ying","namePinyin":"qing he ying","lon":116.442102,"lat":40.050784},"beijing:天通苑东":{"id":"beijing:天通苑东","nameZh":"天通苑东","nameEn":"Tian Tong Yuan Dong","namePinyin":"tian tong yuan dong","lon":116.44234,"lat":40.068348},"beijing:未来科学城":{"id":"beijing:未来科学城","nameZh":"未来科学城","nameEn":"Wei Lai Ke Xue Cheng","namePinyin":"wei lai ke xue cheng","lon":116.466838,"lat":40.115628},"beijing:未来科学城北":{"id":"beijing:未来科学城北","nameZh":"未来科学城北","nameEn":"Wei Lai Ke Xue Cheng Bei","namePinyin":"wei lai ke xue cheng bei","lon":116.468858,"lat":40.130075},"beijing:上地软件园":{"id":"beijing:上地软件园","nameZh":"上地软件园","nameEn":"Shang Di Ruan Jian Yuan","namePinyin":"shang di ruan jian yuan","lon":116.286834,"lat":40.043954},"beijing:东北旺":{"id":"beijing:东北旺","nameZh":"东北旺","nameEn":"Dong Bei Wang","namePinyin":"dong bei wang","lon":116.295038,"lat":40.053069},"beijing:龙泽西":{"id":"beijing:龙泽西","nameZh":"龙泽西","nameEn":"Long Ze Xi","namePinyin":"long ze xi","lon":116.309473,"lat":40.07271},"beijing:回龙观西大街":{"id":"beijing:回龙观西大街","nameZh":"回龙观西大街","nameEn":"Hui Long Guan Xi Da Jie","namePinyin":"hui long guan xi da jie","lon":116.330669,"lat":40.078414},"beijing:文华路":{"id":"beijing:文华路","nameZh":"文华路","nameEn":"Wen Hua Lu","namePinyin":"wen hua lu","lon":116.342685,"lat":40.080137},"beijing:霍营东":{"id":"beijing:霍营东","nameZh":"霍营东","nameEn":"Huo Ying Dong","namePinyin":"huo ying dong","lon":116.376549,"lat":40.082034},"beijing:太平庄":{"id":"beijing:太平庄","nameZh":"太平庄","nameEn":"Tai Ping Zhuang","namePinyin":"tai ping zhuang","lon":116.426731,"lat":40.074126},"beijing:新发地":{"id":"beijing:新发地","nameZh":"新发地","nameEn":"Xin Fa Di","namePinyin":"xin fa di","lon":116.346333,"lat":39.823455},"beijing:牛街":{"id":"beijing:牛街","nameZh":"牛街","nameEn":"Niu Jie","namePinyin":"niu jie","lon":116.363481,"lat":39.889605},"beijing:太平桥":{"id":"beijing:太平桥","nameZh":"太平桥","nameEn":"Tai Ping Qiao","namePinyin":"tai ping qiao","lon":116.363245,"lat":39.909755},"beijing:昌平西山口":{"id":"beijing:昌平西山口","nameZh":"昌平西山口","nameEn":"chang ping xi shan kou","namePinyin":"chang ping xi shan kou","lon":116.195371,"lat":40.244624},"beijing:十三陵景区":{"id":"beijing:十三陵景区","nameZh":"十三陵景区","nameEn":"shi san ling jing qu","namePinyin":"shi san ling jing qu","lon":116.207729,"lat":40.240255},"beijing:昌平":{"id":"beijing:昌平","nameZh":"昌平","nameEn":"chang ping","namePinyin":"chang ping","lon":116.23359,"lat":40.22055},"beijing:昌平东关":{"id":"beijing:昌平东关","nameZh":"昌平东关","nameEn":"chang ping dong guan","namePinyin":"chang ping dong guan","lon":116.262059,"lat":40.221726},"beijing:北邵洼":{"id":"beijing:北邵洼","nameZh":"北邵洼","nameEn":"bei shao wa","namePinyin":"bei shao wa","lon":116.281949,"lat":40.222001},"beijing:南邵":{"id":"beijing:南邵","nameZh":"南邵","nameEn":"nan shao","namePinyin":"nan shao","lon":116.287534,"lat":40.207492},"beijing:沙河高教园":{"id":"beijing:沙河高教园","nameZh":"沙河高教园","nameEn":"sha he gao jiao yuan","namePinyin":"sha he gao jiao yuan","lon":116.280465,"lat":40.164666},"beijing:沙河":{"id":"beijing:沙河","nameZh":"沙河","nameEn":"sha he","namePinyin":"sha he","lon":116.288865,"lat":40.148278},"beijing:巩华城":{"id":"beijing:巩华城","nameZh":"巩华城","nameEn":"gong hua cheng","namePinyin":"gong hua cheng","lon":116.293979,"lat":40.1309},"beijing:生命科学园":{"id":"beijing:生命科学园","nameZh":"生命科学园","nameEn":"sheng ming ke xue yuan","namePinyin":"sheng ming ke xue yuan","lon":116.29423,"lat":40.09479},"beijing:朱房北":{"id":"beijing:朱房北","nameZh":"朱房北","nameEn":"Zhu Fang Bei","namePinyin":"zhu fang bei","lon":116.331711,"lat":40.035954},"beijing:清河小营桥":{"id":"beijing:清河小营桥","nameZh":"清河小营桥","nameEn":"Qing He Xiao Ying Qiao","namePinyin":"qing he xiao ying qiao","lon":116.343739,"lat":40.034723},"beijing:学知园":{"id":"beijing:学知园","nameZh":"学知园","nameEn":"Xue Zhi Yuan","namePinyin":"xue zhi yuan","lon":116.352195,"lat":40.015011},"beijing:学院桥":{"id":"beijing:学院桥","nameZh":"学院桥","nameEn":"Xue Yuan Qiao","namePinyin":"xue yuan qiao","lon":116.353438,"lat":39.988206},"beijing:大兴新城":{"id":"beijing:大兴新城","nameZh":"大兴新城","nameEn":"Da Xing Xin Cheng","namePinyin":"da xing xin cheng","lon":116.365522,"lat":39.735583},"beijing:大兴机场":{"id":"beijing:大兴机场","nameZh":"大兴机场","nameEn":"Da Xing Ji Chang","namePinyin":"da xing ji chang","lon":116.416608,"lat":39.513289},"beijing:阎村东":{"id":"beijing:阎村东","nameZh":"阎村东","nameEn":"yan cun dong","namePinyin":"yan cun dong","lon":116.100817,"lat":39.729028},"beijing:苏庄":{"id":"beijing:苏庄","nameZh":"苏庄","nameEn":"su zhuang","namePinyin":"su zhuang","lon":116.125306,"lat":39.723188},"beijing:良乡南关":{"id":"beijing:良乡南关","nameZh":"良乡南关","nameEn":"liang xiang nan guan","namePinyin":"liang xiang nan guan","lon":116.140804,"lat":39.723202},"beijing:良乡大学城西":{"id":"beijing:良乡大学城西","nameZh":"良乡大学城西","nameEn":"liang xiang da xue cheng xi","namePinyin":"liang xiang da xue cheng xi","lon":116.156282,"lat":39.723157},"beijing:良乡大学城":{"id":"beijing:良乡大学城","nameZh":"良乡大学城","nameEn":"liang xiang da xue cheng","namePinyin":"liang xiang da xue cheng","lon":116.176541,"lat":39.723159},"beijing:良乡大学城北":{"id":"beijing:良乡大学城北","nameZh":"良乡大学城北","nameEn":"liang xiang da xue cheng bei","namePinyin":"liang xiang da xue cheng bei","lon":116.18348,"lat":39.729906},"beijing:广阳城":{"id":"beijing:广阳城","nameZh":"广阳城","nameEn":"guang yang cheng","namePinyin":"guang yang cheng","lon":116.184985,"lat":39.74793},"beijing:篱笆房":{"id":"beijing:篱笆房","nameZh":"篱笆房","nameEn":"li ba fang","namePinyin":"li ba fang","lon":116.189486,"lat":39.760636},"beijing:长阳":{"id":"beijing:长阳","nameZh":"长阳","nameEn":"chang yang","namePinyin":"chang yang","lon":116.212692,"lat":39.763871},"beijing:稻田":{"id":"beijing:稻田","nameZh":"稻田","nameEn":"dao tian","namePinyin":"dao tian","lon":116.21884,"lat":39.794885},"beijing:大葆台":{"id":"beijing:大葆台","nameZh":"大葆台","nameEn":"Da Bao Tai","namePinyin":"da bao tai","lon":116.291681,"lat":39.80781},"beijing:白盆窑":{"id":"beijing:白盆窑","nameZh":"白盆窑","nameEn":"Bai Pen Yao","namePinyin":"bai pen yao","lon":116.313391,"lat":39.81959},"beijing:花乡东桥":{"id":"beijing:花乡东桥","nameZh":"花乡东桥","nameEn":"Hua Xiang Dong Qiao","namePinyin":"hua xiang dong qiao","lon":116.320064,"lat":39.829211},"beijing:3号航站楼":{"id":"beijing:3号航站楼","nameZh":"3号航站楼","nameEn":"3 Hao Hang Zhan Lou","namePinyin":"3 hao hang zhan lou","lon":116.615583,"lat":40.052657},"beijing:2号航站楼":{"id":"beijing:2号航站楼","nameZh":"2号航站楼","nameEn":"2 Hao Hang Zhan Lou","namePinyin":"2 hao hang zhan lou","lon":116.592808,"lat":40.079311},"beijing:颐和园西门":{"id":"beijing:颐和园西门","nameZh":"颐和园西门","nameEn":"yi he yuan xi men","namePinyin":"yi he yuan xi men","lon":116.263248,"lat":39.985697},"beijing:茶棚":{"id":"beijing:茶棚","nameZh":"茶棚","nameEn":"cha peng","namePinyin":"cha peng","lon":116.2481,"lat":39.982113},"beijing:万安":{"id":"beijing:万安","nameZh":"万安","nameEn":"wan an","namePinyin":"wan an","lon":116.231977,"lat":39.984001},"beijing:国家植物园":{"id":"beijing:国家植物园","nameZh":"国家植物园","nameEn":"Guo Jia Zhi Wu Yuan","namePinyin":"guo jia zhi wu yuan","lon":116.215722,"lat":39.993537},"beijing:香山":{"id":"beijing:香山","nameZh":"香山","nameEn":"xiang shan","namePinyin":"xiang shan","lon":116.204491,"lat":39.994056},"beijing:紫草坞":{"id":"beijing:紫草坞","nameZh":"紫草坞","nameEn":"zi cao wu","namePinyin":"zi cao wu","lon":116.08672,"lat":39.724606},"beijing:阎村":{"id":"beijing:阎村","nameZh":"阎村","nameEn":"yan cun","namePinyin":"yan cun","lon":116.080165,"lat":39.716731},"beijing:星城":{"id":"beijing:星城","nameZh":"星城","nameEn":"xing cheng","namePinyin":"xing cheng","lon":116.06137,"lat":39.713681},"beijing:大石河东":{"id":"beijing:大石河东","nameZh":"大石河东","nameEn":"da shi he dong","namePinyin":"da shi he dong","lon":116.039906,"lat":39.709893},"beijing:马各庄":{"id":"beijing:马各庄","nameZh":"马各庄","nameEn":"ma ge zhuang","namePinyin":"ma ge zhuang","lon":116.016606,"lat":39.705103},"beijing:饶乐府":{"id":"beijing:饶乐府","nameZh":"饶乐府","nameEn":"rao le fu","namePinyin":"rao le fu","lon":116.006103,"lat":39.701471},"beijing:房山城关":{"id":"beijing:房山城关","nameZh":"房山城关","nameEn":"fang shan cheng guan","namePinyin":"fang shan cheng guan","lon":115.989599,"lat":39.706061},"beijing:燕山":{"id":"beijing:燕山","nameZh":"燕山","nameEn":"yan shan","namePinyin":"yan shan","lon":115.973395,"lat":39.719615},"beijing:肖村":{"id":"beijing:肖村","nameZh":"肖村","nameEn":"xiao cun","namePinyin":"xiao cun","lon":116.448364,"lat":39.834217},"beijing:小红门":{"id":"beijing:小红门","nameZh":"小红门","nameEn":"xiao hong men","namePinyin":"xiao hong men","lon":116.459226,"lat":39.827951},"beijing:旧宫":{"id":"beijing:旧宫","nameZh":"旧宫","nameEn":"jiu gong","namePinyin":"jiu gong","lon":116.460789,"lat":39.80691},"beijing:亦庄桥":{"id":"beijing:亦庄桥","nameZh":"亦庄桥","nameEn":"yi zhuang qiao","namePinyin":"yi zhuang qiao","lon":116.480307,"lat":39.803011},"beijing:亦庄文化园":{"id":"beijing:亦庄文化园","nameZh":"亦庄文化园","nameEn":"yi zhuang wen hua yuan","namePinyin":"yi zhuang wen hua yuan","lon":116.490632,"lat":39.80689},"beijing:万源街":{"id":"beijing:万源街","nameZh":"万源街","nameEn":"wan yuan jie","namePinyin":"wan yuan jie","lon":116.505403,"lat":39.802971},"beijing:荣京东街":{"id":"beijing:荣京东街","nameZh":"荣京东街","nameEn":"rong jing dong jie","namePinyin":"rong jing dong jie","lon":116.513321,"lat":39.793189},"beijing:荣昌东街":{"id":"beijing:荣昌东街","nameZh":"荣昌东街","nameEn":"rong chang dong jie","namePinyin":"rong chang dong jie","lon":116.521688,"lat":39.782832},"beijing:同济南路":{"id":"beijing:同济南路","nameZh":"同济南路","nameEn":"tong ji nan lu","namePinyin":"tong ji nan lu","lon":116.539901,"lat":39.772962},"beijing:经海路":{"id":"beijing:经海路","nameZh":"经海路","nameEn":"jing hai lu","namePinyin":"jing hai lu","lon":116.562321,"lat":39.783673},"beijing:次渠南":{"id":"beijing:次渠南","nameZh":"次渠南","nameEn":"ci qu nan","namePinyin":"ci qu nan","lon":116.581357,"lat":39.795118},"beijing:亦庄火车站":{"id":"beijing:亦庄火车站","nameZh":"亦庄火车站","nameEn":"yi zhuang huo che zhan","namePinyin":"yi zhuang huo che zhan","lon":116.601913,"lat":39.812607}},"lines":[{"id":"beijing-s1","lineId":"S1","lineName":"S1线","operatorName":"北京轨道交通","color":"#B35A1F","stationIds":["beijing:苹果园","beijing:金安桥","beijing:四道桥","beijing:桥户营","beijing:上岸","beijing:栗园庄","beijing:小园","beijing:石厂"],"mapPaths":[{"id":"900000069871","stationIds":["beijing:苹果园","beijing:金安桥","beijing:四道桥","beijing:桥户营","beijing:上岸","beijing:栗园庄","beijing:小园","beijing:石厂"]}],"runs":[{"id":"beijing-s1-run-1","nameZh":"S1线","kind":"linear","directions":[{"id":"beijing-s1-run-1-forward","labelZh":"正向","stationIds":["beijing:苹果园","beijing:金安桥","beijing:四道桥","beijing:桥户营","beijing:上岸","beijing:栗园庄","beijing:小园","beijing:石厂"]},{"id":"beijing-s1-run-1-reverse","labelZh":"反向","stationIds":["beijing:石厂","beijing:小园","beijing:栗园庄","beijing:上岸","beijing:桥户营","beijing:四道桥","beijing:金安桥","beijing:苹果园"]}]}]},{"id":"beijing-1","lineId":"1","lineName":"1号线八通线","operatorName":"北京轨道交通","color":"#CC0000","stationIds":["beijing:苹果园","beijing:古城","beijing:八宝山","beijing:玉泉路","beijing:五棵松","beijing:万寿路","beijing:公主坟","beijing:军事博物馆","beijing:木樨地","beijing:南礼士路","beijing:复兴门","beijing:西单","beijing:天安门西","beijing:天安门东","beijing:王府井","beijing:东单","beijing:建国门","beijing:永安里","beijing:国贸","beijing:大望路","beijing:四惠","beijing:四惠东","beijing:高碑店","beijing:传媒大学","beijing:双桥","beijing:管庄","beijing:八里桥","beijing:通州北苑","beijing:果园","beijing:九棵树","beijing:梨园","beijing:临河里","beijing:土桥","beijing:花庄","beijing:环球度假区"],"mapPaths":[{"id":"110100023110","stationIds":["beijing:苹果园","beijing:古城","beijing:八宝山","beijing:玉泉路","beijing:五棵松","beijing:万寿路","beijing:公主坟","beijing:军事博物馆","beijing:木樨地","beijing:南礼士路","beijing:复兴门","beijing:西单","beijing:天安门西","beijing:天安门东","beijing:王府井","beijing:东单","beijing:建国门","beijing:永安里","beijing:国贸","beijing:大望路","beijing:四惠","beijing:四惠东","beijing:高碑店","beijing:传媒大学","beijing:双桥","beijing:管庄","beijing:八里桥","beijing:通州北苑","beijing:果园","beijing:九棵树","beijing:梨园","beijing:临河里","beijing:土桥","beijing:花庄","beijing:环球度假区"]}],"runs":[{"id":"beijing-1-run-1","nameZh":"1号线八通线","kind":"linear","directions":[{"id":"beijing-1-run-1-forward","labelZh":"正向","stationIds":["beijing:苹果园","beijing:古城","beijing:八宝山","beijing:玉泉路","beijing:五棵松","beijing:万寿路","beijing:公主坟","beijing:军事博物馆","beijing:木樨地","beijing:南礼士路","beijing:复兴门","beijing:西单","beijing:天安门西","beijing:天安门东","beijing:王府井","beijing:东单","beijing:建国门","beijing:永安里","beijing:国贸","beijing:大望路","beijing:四惠","beijing:四惠东","beijing:高碑店","beijing:传媒大学","beijing:双桥","beijing:管庄","beijing:八里桥","beijing:通州北苑","beijing:果园","beijing:九棵树","beijing:梨园","beijing:临河里","beijing:土桥","beijing:花庄","beijing:环球度假区"]},{"id":"beijing-1-run-1-reverse","labelZh":"反向","stationIds":["beijing:环球度假区","beijing:花庄","beijing:土桥","beijing:临河里","beijing:梨园","beijing:九棵树","beijing:果园","beijing:通州北苑","beijing:八里桥","beijing:管庄","beijing:双桥","beijing:传媒大学","beijing:高碑店","beijing:四惠东","beijing:四惠","beijing:大望路","beijing:国贸","beijing:永安里","beijing:建国门","beijing:东单","beijing:王府井","beijing:天安门东","beijing:天安门西","beijing:西单","beijing:复兴门","beijing:南礼士路","beijing:木樨地","beijing:军事博物馆","beijing:公主坟","beijing:万寿路","beijing:五棵松","beijing:玉泉路","beijing:八宝山","beijing:古城","beijing:苹果园"]}]}]},{"id":"beijing-2","lineId":"2","lineName":"2号线","operatorName":"北京轨道交通","color":"#0065B3","stationIds":["beijing:积水潭","beijing:鼓楼大街","beijing:安定门","beijing:雍和宫","beijing:东直门","beijing:东四十条","beijing:朝阳门","beijing:建国门","beijing:北京站","beijing:崇文门","beijing:前门","beijing:和平门","beijing:宣武门","beijing:长椿街","beijing:复兴门","beijing:阜成门","beijing:车公庄","beijing:西直门"],"mapPaths":[{"id":"110100023098","stationIds":["beijing:积水潭","beijing:鼓楼大街","beijing:安定门","beijing:雍和宫","beijing:东直门","beijing:东四十条","beijing:朝阳门","beijing:建国门","beijing:北京站","beijing:崇文门","beijing:前门","beijing:和平门","beijing:宣武门","beijing:长椿街","beijing:复兴门","beijing:阜成门","beijing:车公庄","beijing:西直门","beijing:积水潭"],"closed":true}],"runs":[{"id":"beijing-2-run-1","nameZh":"2号线","kind":"loop","directions":[{"id":"beijing-2-run-1-forward","labelZh":"经鼓楼大街","stationIds":["beijing:积水潭","beijing:鼓楼大街","beijing:安定门","beijing:雍和宫","beijing:东直门","beijing:东四十条","beijing:朝阳门","beijing:建国门","beijing:北京站","beijing:崇文门","beijing:前门","beijing:和平门","beijing:宣武门","beijing:长椿街","beijing:复兴门","beijing:阜成门","beijing:车公庄","beijing:西直门"]},{"id":"beijing-2-run-1-reverse","labelZh":"经车公庄","stationIds":["beijing:西直门","beijing:车公庄","beijing:阜成门","beijing:复兴门","beijing:长椿街","beijing:宣武门","beijing:和平门","beijing:前门","beijing:崇文门","beijing:北京站","beijing:建国门","beijing:朝阳门","beijing:东四十条","beijing:东直门","beijing:雍和宫","beijing:安定门","beijing:鼓楼大街","beijing:积水潭"]}]}]},{"id":"beijing-3","lineId":"3","lineName":"3号线","operatorName":"北京轨道交通","color":"#E3002A","stationIds":["beijing:东四十条","beijing:工人体育场","beijing:团结湖","beijing:朝阳公园","beijing:石佛营","beijing:朝阳站","beijing:姚家园","beijing:东坝南","beijing:东坝","beijing:东坝北"],"mapPaths":[{"id":"900000058113","stationIds":["beijing:东四十条","beijing:工人体育场","beijing:团结湖","beijing:朝阳公园","beijing:石佛营","beijing:朝阳站","beijing:姚家园","beijing:东坝南","beijing:东坝","beijing:东坝北"]}],"runs":[{"id":"beijing-3-run-1","nameZh":"3号线","kind":"linear","directions":[{"id":"beijing-3-run-1-forward","labelZh":"正向","stationIds":["beijing:东四十条","beijing:工人体育场","beijing:团结湖","beijing:朝阳公园","beijing:石佛营","beijing:朝阳站","beijing:姚家园","beijing:东坝南","beijing:东坝","beijing:东坝北"]},{"id":"beijing-3-run-1-reverse","labelZh":"反向","stationIds":["beijing:东坝北","beijing:东坝","beijing:东坝南","beijing:姚家园","beijing:朝阳站","beijing:石佛营","beijing:朝阳公园","beijing:团结湖","beijing:工人体育场","beijing:东四十条"]}]}]},{"id":"beijing-4","lineId":"4","lineName":"4号线大兴线","operatorName":"北京轨道交通","color":"#008187","stationIds":["beijing:天宫院","beijing:生物医药基地","beijing:义和庄","beijing:黄村火车站","beijing:黄村西大街","beijing:清源路","beijing:枣园","beijing:高米店南","beijing:高米店北","beijing:西红门","beijing:新宫","beijing:公益西桥","beijing:角门西","beijing:马家堡","beijing:北京南站","beijing:陶然亭","beijing:菜市口","beijing:宣武门","beijing:西单","beijing:灵境胡同","beijing:西四","beijing:平安里","beijing:新街口","beijing:西直门","beijing:动物园","beijing:国家图书馆","beijing:魏公村","beijing:人民大学","beijing:海淀黄庄","beijing:中关村","beijing:北京大学东门","beijing:圆明园","beijing:西苑","beijing:北宫门","beijing:安河桥北"],"mapPaths":[{"id":"110100023076","stationIds":["beijing:天宫院","beijing:生物医药基地","beijing:义和庄","beijing:黄村火车站","beijing:黄村西大街","beijing:清源路","beijing:枣园","beijing:高米店南","beijing:高米店北","beijing:西红门","beijing:新宫","beijing:公益西桥","beijing:角门西","beijing:马家堡","beijing:北京南站","beijing:陶然亭","beijing:菜市口","beijing:宣武门","beijing:西单","beijing:灵境胡同","beijing:西四","beijing:平安里","beijing:新街口","beijing:西直门","beijing:动物园","beijing:国家图书馆","beijing:魏公村","beijing:人民大学","beijing:海淀黄庄","beijing:中关村","beijing:北京大学东门","beijing:圆明园","beijing:西苑","beijing:北宫门","beijing:安河桥北"]}],"runs":[{"id":"beijing-4-run-1","nameZh":"4号线大兴线","kind":"linear","directions":[{"id":"beijing-4-run-1-forward","labelZh":"正向","stationIds":["beijing:天宫院","beijing:生物医药基地","beijing:义和庄","beijing:黄村火车站","beijing:黄村西大街","beijing:清源路","beijing:枣园","beijing:高米店南","beijing:高米店北","beijing:西红门","beijing:新宫","beijing:公益西桥","beijing:角门西","beijing:马家堡","beijing:北京南站","beijing:陶然亭","beijing:菜市口","beijing:宣武门","beijing:西单","beijing:灵境胡同","beijing:西四","beijing:平安里","beijing:新街口","beijing:西直门","beijing:动物园","beijing:国家图书馆","beijing:魏公村","beijing:人民大学","beijing:海淀黄庄","beijing:中关村","beijing:北京大学东门","beijing:圆明园","beijing:西苑","beijing:北宫门","beijing:安河桥北"]},{"id":"beijing-4-run-1-reverse","labelZh":"反向","stationIds":["beijing:安河桥北","beijing:北宫门","beijing:西苑","beijing:圆明园","beijing:北京大学东门","beijing:中关村","beijing:海淀黄庄","beijing:人民大学","beijing:魏公村","beijing:国家图书馆","beijing:动物园","beijing:西直门","beijing:新街口","beijing:平安里","beijing:西四","beijing:灵境胡同","beijing:西单","beijing:宣武门","beijing:菜市口","beijing:陶然亭","beijing:北京南站","beijing:马家堡","beijing:角门西","beijing:公益西桥","beijing:新宫","beijing:西红门","beijing:高米店北","beijing:高米店南","beijing:枣园","beijing:清源路","beijing:黄村西大街","beijing:黄村火车站","beijing:义和庄","beijing:生物医药基地","beijing:天宫院"]}]}]},{"id":"beijing-5","lineId":"5","lineName":"5号线","operatorName":"北京轨道交通","color":"#A61D7F","stationIds":["beijing:宋家庄","beijing:刘家窑","beijing:蒲黄榆","beijing:天坛东门","beijing:磁器口","beijing:崇文门","beijing:东单","beijing:灯市口","beijing:东四","beijing:张自忠路","beijing:北新桥","beijing:雍和宫","beijing:和平里北街","beijing:和平西桥","beijing:惠新西街南口","beijing:惠新西街北口","beijing:大屯路东","beijing:北苑路北","beijing:立水桥南","beijing:立水桥","beijing:天通苑南","beijing:天通苑","beijing:天通苑北"],"mapPaths":[{"id":"110100023100","stationIds":["beijing:宋家庄","beijing:刘家窑","beijing:蒲黄榆","beijing:天坛东门","beijing:磁器口","beijing:崇文门","beijing:东单","beijing:灯市口","beijing:东四","beijing:张自忠路","beijing:北新桥","beijing:雍和宫","beijing:和平里北街","beijing:和平西桥","beijing:惠新西街南口","beijing:惠新西街北口","beijing:大屯路东","beijing:北苑路北","beijing:立水桥南","beijing:立水桥","beijing:天通苑南","beijing:天通苑","beijing:天通苑北"]}],"runs":[{"id":"beijing-5-run-1","nameZh":"5号线","kind":"linear","directions":[{"id":"beijing-5-run-1-forward","labelZh":"正向","stationIds":["beijing:宋家庄","beijing:刘家窑","beijing:蒲黄榆","beijing:天坛东门","beijing:磁器口","beijing:崇文门","beijing:东单","beijing:灯市口","beijing:东四","beijing:张自忠路","beijing:北新桥","beijing:雍和宫","beijing:和平里北街","beijing:和平西桥","beijing:惠新西街南口","beijing:惠新西街北口","beijing:大屯路东","beijing:北苑路北","beijing:立水桥南","beijing:立水桥","beijing:天通苑南","beijing:天通苑","beijing:天通苑北"]},{"id":"beijing-5-run-1-reverse","labelZh":"反向","stationIds":["beijing:天通苑北","beijing:天通苑","beijing:天通苑南","beijing:立水桥","beijing:立水桥南","beijing:北苑路北","beijing:大屯路东","beijing:惠新西街北口","beijing:惠新西街南口","beijing:和平西桥","beijing:和平里北街","beijing:雍和宫","beijing:北新桥","beijing:张自忠路","beijing:东四","beijing:灯市口","beijing:东单","beijing:崇文门","beijing:磁器口","beijing:天坛东门","beijing:蒲黄榆","beijing:刘家窑","beijing:宋家庄"]}]}]},{"id":"beijing-6","lineId":"6","lineName":"6号线","operatorName":"北京轨道交通","color":"#D0970A","stationIds":["beijing:潞阳","beijing:潞城","beijing:东夏园","beijing:郝家府","beijing:北运河东","beijing:北运河西","beijing:通运门","beijing:通州北关","beijing:物资学院路","beijing:草房","beijing:常营","beijing:黄渠","beijing:褡裢坡","beijing:青年路","beijing:十里堡","beijing:金台路","beijing:呼家楼","beijing:东大桥","beijing:朝阳门","beijing:东四","beijing:南锣鼓巷","beijing:北海北","beijing:平安里","beijing:车公庄","beijing:车公庄西","beijing:二里沟","beijing:白石桥南","beijing:花园桥","beijing:慈寿寺","beijing:海淀五路居","beijing:田村","beijing:廖公庄","beijing:西黄村","beijing:杨庄","beijing:苹果园","beijing:金安桥"],"mapPaths":[{"id":"110100023339","stationIds":["beijing:潞阳","beijing:潞城","beijing:东夏园","beijing:郝家府","beijing:北运河东","beijing:北运河西","beijing:通运门","beijing:通州北关","beijing:物资学院路","beijing:草房","beijing:常营","beijing:黄渠","beijing:褡裢坡","beijing:青年路","beijing:十里堡","beijing:金台路","beijing:呼家楼","beijing:东大桥","beijing:朝阳门","beijing:东四","beijing:南锣鼓巷","beijing:北海北","beijing:平安里","beijing:车公庄","beijing:车公庄西","beijing:二里沟","beijing:白石桥南","beijing:花园桥","beijing:慈寿寺","beijing:海淀五路居","beijing:田村","beijing:廖公庄","beijing:西黄村","beijing:杨庄","beijing:苹果园","beijing:金安桥"]}],"runs":[{"id":"beijing-6-run-1","nameZh":"6号线","kind":"linear","directions":[{"id":"beijing-6-run-1-forward","labelZh":"正向","stationIds":["beijing:潞阳","beijing:潞城","beijing:东夏园","beijing:郝家府","beijing:北运河东","beijing:北运河西","beijing:通运门","beijing:通州北关","beijing:物资学院路","beijing:草房","beijing:常营","beijing:黄渠","beijing:褡裢坡","beijing:青年路","beijing:十里堡","beijing:金台路","beijing:呼家楼","beijing:东大桥","beijing:朝阳门","beijing:东四","beijing:南锣鼓巷","beijing:北海北","beijing:平安里","beijing:车公庄","beijing:车公庄西","beijing:二里沟","beijing:白石桥南","beijing:花园桥","beijing:慈寿寺","beijing:海淀五路居","beijing:田村","beijing:廖公庄","beijing:西黄村","beijing:杨庄","beijing:苹果园","beijing:金安桥"]},{"id":"beijing-6-run-1-reverse","labelZh":"反向","stationIds":["beijing:金安桥","beijing:苹果园","beijing:杨庄","beijing:西黄村","beijing:廖公庄","beijing:田村","beijing:海淀五路居","beijing:慈寿寺","beijing:花园桥","beijing:白石桥南","beijing:二里沟","beijing:车公庄西","beijing:车公庄","beijing:平安里","beijing:北海北","beijing:南锣鼓巷","beijing:东四","beijing:朝阳门","beijing:东大桥","beijing:呼家楼","beijing:金台路","beijing:十里堡","beijing:青年路","beijing:褡裢坡","beijing:黄渠","beijing:常营","beijing:草房","beijing:物资学院路","beijing:通州北关","beijing:通运门","beijing:北运河西","beijing:北运河东","beijing:郝家府","beijing:东夏园","beijing:潞城","beijing:潞阳"]}]}]},{"id":"beijing-7","lineId":"7","lineName":"7号线","operatorName":"北京轨道交通","color":"#F9BE58","stationIds":["beijing:环球度假区","beijing:花庄","beijing:高楼金","beijing:群芳","beijing:万盛东","beijing:万盛西","beijing:黑庄户","beijing:郎辛庄","beijing:黄厂","beijing:焦化厂","beijing:双合","beijing:垡头","beijing:欢乐谷景区","beijing:南楼梓庄","beijing:化工","beijing:百子湾","beijing:大郊亭","beijing:九龙山","beijing:双井","beijing:广渠门外","beijing:广渠门内","beijing:磁器口","beijing:桥湾","beijing:珠市口","beijing:虎坊桥","beijing:菜市口","beijing:广安门内","beijing:达官营","beijing:湾子","beijing:北京西站"],"mapPaths":[{"id":"110100023054","stationIds":["beijing:环球度假区","beijing:花庄","beijing:高楼金","beijing:群芳","beijing:万盛东","beijing:万盛西","beijing:黑庄户","beijing:郎辛庄","beijing:黄厂","beijing:焦化厂","beijing:双合","beijing:垡头","beijing:欢乐谷景区","beijing:南楼梓庄","beijing:化工","beijing:百子湾","beijing:大郊亭","beijing:九龙山","beijing:双井","beijing:广渠门外","beijing:广渠门内","beijing:磁器口","beijing:桥湾","beijing:珠市口","beijing:虎坊桥","beijing:菜市口","beijing:广安门内","beijing:达官营","beijing:湾子","beijing:北京西站"]}],"runs":[{"id":"beijing-7-run-1","nameZh":"7号线","kind":"linear","directions":[{"id":"beijing-7-run-1-forward","labelZh":"正向","stationIds":["beijing:环球度假区","beijing:花庄","beijing:高楼金","beijing:群芳","beijing:万盛东","beijing:万盛西","beijing:黑庄户","beijing:郎辛庄","beijing:黄厂","beijing:焦化厂","beijing:双合","beijing:垡头","beijing:欢乐谷景区","beijing:南楼梓庄","beijing:化工","beijing:百子湾","beijing:大郊亭","beijing:九龙山","beijing:双井","beijing:广渠门外","beijing:广渠门内","beijing:磁器口","beijing:桥湾","beijing:珠市口","beijing:虎坊桥","beijing:菜市口","beijing:广安门内","beijing:达官营","beijing:湾子","beijing:北京西站"]},{"id":"beijing-7-run-1-reverse","labelZh":"反向","stationIds":["beijing:北京西站","beijing:湾子","beijing:达官营","beijing:广安门内","beijing:菜市口","beijing:虎坊桥","beijing:珠市口","beijing:桥湾","beijing:磁器口","beijing:广渠门内","beijing:广渠门外","beijing:双井","beijing:九龙山","beijing:大郊亭","beijing:百子湾","beijing:化工","beijing:南楼梓庄","beijing:欢乐谷景区","beijing:垡头","beijing:双合","beijing:焦化厂","beijing:黄厂","beijing:郎辛庄","beijing:黑庄户","beijing:万盛西","beijing:万盛东","beijing:群芳","beijing:高楼金","beijing:花庄","beijing:环球度假区"]}]}]},{"id":"beijing-8","lineId":"8","lineName":"8号线","operatorName":"北京轨道交通","color":"#018237","stationIds":["beijing:瀛海","beijing:德茂","beijing:五福堂","beijing:火箭万源","beijing:东高地","beijing:和义","beijing:大红门南","beijing:大红门","beijing:海户屯","beijing:木樨园","beijing:永定门外","beijing:天桥","beijing:珠市口","beijing:前门","beijing:王府井","beijing:金鱼胡同","beijing:中国美术馆","beijing:南锣鼓巷","beijing:什刹海","beijing:鼓楼大街","beijing:安德里北街","beijing:安华桥","beijing:北土城","beijing:奥体中心","beijing:奥林匹克公园","beijing:森林公园南门","beijing:林萃桥","beijing:永泰庄","beijing:西小口","beijing:育新","beijing:霍营","beijing:回龙观东大街","beijing:平西府","beijing:育知路","beijing:朱辛庄"],"mapPaths":[{"id":"110100023114","stationIds":["beijing:瀛海","beijing:德茂","beijing:五福堂","beijing:火箭万源","beijing:东高地","beijing:和义","beijing:大红门南","beijing:大红门","beijing:海户屯","beijing:木樨园","beijing:永定门外","beijing:天桥","beijing:珠市口","beijing:前门","beijing:王府井","beijing:金鱼胡同","beijing:中国美术馆","beijing:南锣鼓巷","beijing:什刹海","beijing:鼓楼大街","beijing:安德里北街","beijing:安华桥","beijing:北土城","beijing:奥体中心","beijing:奥林匹克公园","beijing:森林公园南门","beijing:林萃桥","beijing:永泰庄","beijing:西小口","beijing:育新","beijing:霍营","beijing:回龙观东大街","beijing:平西府","beijing:育知路","beijing:朱辛庄"]}],"runs":[{"id":"beijing-8-run-1","nameZh":"8号线","kind":"linear","directions":[{"id":"beijing-8-run-1-forward","labelZh":"正向","stationIds":["beijing:瀛海","beijing:德茂","beijing:五福堂","beijing:火箭万源","beijing:东高地","beijing:和义","beijing:大红门南","beijing:大红门","beijing:海户屯","beijing:木樨园","beijing:永定门外","beijing:天桥","beijing:珠市口","beijing:前门","beijing:王府井","beijing:金鱼胡同","beijing:中国美术馆","beijing:南锣鼓巷","beijing:什刹海","beijing:鼓楼大街","beijing:安德里北街","beijing:安华桥","beijing:北土城","beijing:奥体中心","beijing:奥林匹克公园","beijing:森林公园南门","beijing:林萃桥","beijing:永泰庄","beijing:西小口","beijing:育新","beijing:霍营","beijing:回龙观东大街","beijing:平西府","beijing:育知路","beijing:朱辛庄"]},{"id":"beijing-8-run-1-reverse","labelZh":"反向","stationIds":["beijing:朱辛庄","beijing:育知路","beijing:平西府","beijing:回龙观东大街","beijing:霍营","beijing:育新","beijing:西小口","beijing:永泰庄","beijing:林萃桥","beijing:森林公园南门","beijing:奥林匹克公园","beijing:奥体中心","beijing:北土城","beijing:安华桥","beijing:安德里北街","beijing:鼓楼大街","beijing:什刹海","beijing:南锣鼓巷","beijing:中国美术馆","beijing:金鱼胡同","beijing:王府井","beijing:前门","beijing:珠市口","beijing:天桥","beijing:永定门外","beijing:木樨园","beijing:海户屯","beijing:大红门","beijing:大红门南","beijing:和义","beijing:东高地","beijing:火箭万源","beijing:五福堂","beijing:德茂","beijing:瀛海"]}]}]},{"id":"beijing-9","lineId":"9","lineName":"9号线","operatorName":"北京轨道交通","color":"#86B81C","stationIds":["beijing:郭公庄","beijing:丰台科技园","beijing:科怡路","beijing:丰台南路","beijing:丰台东大街","beijing:七里庄","beijing:六里桥","beijing:六里桥东","beijing:北京西站","beijing:军事博物馆","beijing:白堆子","beijing:白石桥南","beijing:国家图书馆"],"mapPaths":[{"id":"110100023116","stationIds":["beijing:郭公庄","beijing:丰台科技园","beijing:科怡路","beijing:丰台南路","beijing:丰台东大街","beijing:七里庄","beijing:六里桥","beijing:六里桥东","beijing:北京西站","beijing:军事博物馆","beijing:白堆子","beijing:白石桥南","beijing:国家图书馆"]}],"runs":[{"id":"beijing-9-run-1","nameZh":"9号线","kind":"linear","directions":[{"id":"beijing-9-run-1-forward","labelZh":"正向","stationIds":["beijing:郭公庄","beijing:丰台科技园","beijing:科怡路","beijing:丰台南路","beijing:丰台东大街","beijing:七里庄","beijing:六里桥","beijing:六里桥东","beijing:北京西站","beijing:军事博物馆","beijing:白堆子","beijing:白石桥南","beijing:国家图书馆"]},{"id":"beijing-9-run-1-reverse","labelZh":"反向","stationIds":["beijing:国家图书馆","beijing:白石桥南","beijing:白堆子","beijing:军事博物馆","beijing:北京西站","beijing:六里桥东","beijing:六里桥","beijing:七里庄","beijing:丰台东大街","beijing:丰台南路","beijing:科怡路","beijing:丰台科技园","beijing:郭公庄"]}]}]},{"id":"beijing-10","lineId":"10","lineName":"10号线","operatorName":"北京轨道交通","color":"#019AC3","stationIds":["beijing:巴沟","beijing:苏州街","beijing:海淀黄庄","beijing:知春里","beijing:知春路","beijing:西土城","beijing:牡丹园","beijing:健德门","beijing:北土城","beijing:安贞门","beijing:惠新西街南口","beijing:芍药居","beijing:太阳宫","beijing:三元桥","beijing:亮马桥","beijing:农业展览馆","beijing:团结湖","beijing:呼家楼","beijing:金台夕照","beijing:国贸","beijing:双井","beijing:劲松","beijing:潘家园","beijing:十里河","beijing:分钟寺","beijing:成寿寺","beijing:宋家庄","beijing:石榴庄","beijing:大红门","beijing:角门东","beijing:角门西","beijing:草桥","beijing:纪家庙","beijing:首经贸","beijing:丰台站","beijing:泥洼","beijing:西局","beijing:六里桥","beijing:莲花桥","beijing:公主坟","beijing:西钓鱼台","beijing:慈寿寺","beijing:车道沟","beijing:长春桥","beijing:火器营"],"mapPaths":[{"id":"110100023282","stationIds":["beijing:巴沟","beijing:苏州街","beijing:海淀黄庄","beijing:知春里","beijing:知春路","beijing:西土城","beijing:牡丹园","beijing:健德门","beijing:北土城","beijing:安贞门","beijing:惠新西街南口","beijing:芍药居","beijing:太阳宫","beijing:三元桥","beijing:亮马桥","beijing:农业展览馆","beijing:团结湖","beijing:呼家楼","beijing:金台夕照","beijing:国贸","beijing:双井","beijing:劲松","beijing:潘家园","beijing:十里河","beijing:分钟寺","beijing:成寿寺","beijing:宋家庄","beijing:石榴庄","beijing:大红门","beijing:角门东","beijing:角门西","beijing:草桥","beijing:纪家庙","beijing:首经贸","beijing:丰台站","beijing:泥洼","beijing:西局","beijing:六里桥","beijing:莲花桥","beijing:公主坟","beijing:西钓鱼台","beijing:慈寿寺","beijing:车道沟","beijing:长春桥","beijing:火器营","beijing:巴沟"],"closed":true}],"runs":[{"id":"beijing-10-run-1","nameZh":"10号线","kind":"loop","directions":[{"id":"beijing-10-run-1-forward","labelZh":"经苏州街","stationIds":["beijing:巴沟","beijing:苏州街","beijing:海淀黄庄","beijing:知春里","beijing:知春路","beijing:西土城","beijing:牡丹园","beijing:健德门","beijing:北土城","beijing:安贞门","beijing:惠新西街南口","beijing:芍药居","beijing:太阳宫","beijing:三元桥","beijing:亮马桥","beijing:农业展览馆","beijing:团结湖","beijing:呼家楼","beijing:金台夕照","beijing:国贸","beijing:双井","beijing:劲松","beijing:潘家园","beijing:十里河","beijing:分钟寺","beijing:成寿寺","beijing:宋家庄","beijing:石榴庄","beijing:大红门","beijing:角门东","beijing:角门西","beijing:草桥","beijing:纪家庙","beijing:首经贸","beijing:丰台站","beijing:泥洼","beijing:西局","beijing:六里桥","beijing:莲花桥","beijing:公主坟","beijing:西钓鱼台","beijing:慈寿寺","beijing:车道沟","beijing:长春桥","beijing:火器营"]},{"id":"beijing-10-run-1-reverse","labelZh":"经长春桥","stationIds":["beijing:火器营","beijing:长春桥","beijing:车道沟","beijing:慈寿寺","beijing:西钓鱼台","beijing:公主坟","beijing:莲花桥","beijing:六里桥","beijing:西局","beijing:泥洼","beijing:丰台站","beijing:首经贸","beijing:纪家庙","beijing:草桥","beijing:角门西","beijing:角门东","beijing:大红门","beijing:石榴庄","beijing:宋家庄","beijing:成寿寺","beijing:分钟寺","beijing:十里河","beijing:潘家园","beijing:劲松","beijing:双井","beijing:国贸","beijing:金台夕照","beijing:呼家楼","beijing:团结湖","beijing:农业展览馆","beijing:亮马桥","beijing:三元桥","beijing:太阳宫","beijing:芍药居","beijing:惠新西街南口","beijing:安贞门","beijing:北土城","beijing:健德门","beijing:牡丹园","beijing:西土城","beijing:知春路","beijing:知春里","beijing:海淀黄庄","beijing:苏州街","beijing:巴沟"]}]}]},{"id":"beijing-11","lineId":"11","lineName":"11号线","operatorName":"北京轨道交通","color":"#EE3F42","stationIds":["beijing:模式口","beijing:金安桥","beijing:北辛安","beijing:新首钢"],"mapPaths":[{"id":"900000159716","stationIds":["beijing:模式口","beijing:金安桥","beijing:北辛安","beijing:新首钢"]}],"runs":[{"id":"beijing-11-run-1","nameZh":"11号线","kind":"linear","directions":[{"id":"beijing-11-run-1-forward","labelZh":"正向","stationIds":["beijing:模式口","beijing:金安桥","beijing:北辛安","beijing:新首钢"]},{"id":"beijing-11-run-1-reverse","labelZh":"反向","stationIds":["beijing:新首钢","beijing:北辛安","beijing:金安桥","beijing:模式口"]}]}]},{"id":"beijing-12","lineId":"12","lineName":"12号线","operatorName":"北京轨道交通","color":"#B35A1F","stationIds":["beijing:东坝北","beijing:东坝西","beijing:驼房营","beijing:高家园","beijing:将台西","beijing:三元桥","beijing:西坝河","beijing:光熙门","beijing:和平西桥","beijing:安贞桥","beijing:安华桥","beijing:马甸桥","beijing:北太平庄","beijing:蓟门桥","beijing:大钟寺","beijing:人民大学","beijing:苏州桥","beijing:长春桥","beijing:蓝靛厂","beijing:四季青桥"],"mapPaths":[{"id":"900000077547","stationIds":["beijing:东坝北","beijing:东坝西","beijing:驼房营","beijing:高家园","beijing:将台西","beijing:三元桥","beijing:西坝河","beijing:光熙门","beijing:和平西桥","beijing:安贞桥","beijing:安华桥","beijing:马甸桥","beijing:北太平庄","beijing:蓟门桥","beijing:大钟寺","beijing:人民大学","beijing:苏州桥","beijing:长春桥","beijing:蓝靛厂","beijing:四季青桥"]}],"runs":[{"id":"beijing-12-run-1","nameZh":"12号线","kind":"linear","directions":[{"id":"beijing-12-run-1-forward","labelZh":"正向","stationIds":["beijing:东坝北","beijing:东坝西","beijing:驼房营","beijing:高家园","beijing:将台西","beijing:三元桥","beijing:西坝河","beijing:光熙门","beijing:和平西桥","beijing:安贞桥","beijing:安华桥","beijing:马甸桥","beijing:北太平庄","beijing:蓟门桥","beijing:大钟寺","beijing:人民大学","beijing:苏州桥","beijing:长春桥","beijing:蓝靛厂","beijing:四季青桥"]},{"id":"beijing-12-run-1-reverse","labelZh":"反向","stationIds":["beijing:四季青桥","beijing:蓝靛厂","beijing:长春桥","beijing:苏州桥","beijing:人民大学","beijing:大钟寺","beijing:蓟门桥","beijing:北太平庄","beijing:马甸桥","beijing:安华桥","beijing:安贞桥","beijing:和平西桥","beijing:光熙门","beijing:西坝河","beijing:三元桥","beijing:将台西","beijing:高家园","beijing:驼房营","beijing:东坝西","beijing:东坝北"]}]}]},{"id":"beijing-13","lineId":"13","lineName":"13号线","operatorName":"北京轨道交通","color":"#FCD600","stationIds":["beijing:西直门","beijing:大钟寺","beijing:知春路","beijing:五道口","beijing:上地","beijing:清河站","beijing:西二旗","beijing:龙泽","beijing:回龙观","beijing:霍营","beijing:立水桥","beijing:北苑","beijing:望京西","beijing:芍药居","beijing:光熙门","beijing:柳芳","beijing:东直门"],"mapPaths":[{"id":"110100033066","stationIds":["beijing:西直门","beijing:大钟寺","beijing:知春路","beijing:五道口","beijing:上地","beijing:清河站","beijing:西二旗","beijing:龙泽","beijing:回龙观","beijing:霍营","beijing:立水桥","beijing:北苑","beijing:望京西","beijing:芍药居","beijing:光熙门","beijing:柳芳","beijing:东直门"]}],"runs":[{"id":"beijing-13-run-1","nameZh":"13号线","kind":"linear","directions":[{"id":"beijing-13-run-1-forward","labelZh":"正向","stationIds":["beijing:西直门","beijing:大钟寺","beijing:知春路","beijing:五道口","beijing:上地","beijing:清河站","beijing:西二旗","beijing:龙泽","beijing:回龙观","beijing:霍营","beijing:立水桥","beijing:北苑","beijing:望京西","beijing:芍药居","beijing:光熙门","beijing:柳芳","beijing:东直门"]},{"id":"beijing-13-run-1-reverse","labelZh":"反向","stationIds":["beijing:东直门","beijing:柳芳","beijing:光熙门","beijing:芍药居","beijing:望京西","beijing:北苑","beijing:立水桥","beijing:霍营","beijing:回龙观","beijing:龙泽","beijing:西二旗","beijing:清河站","beijing:上地","beijing:五道口","beijing:知春路","beijing:大钟寺","beijing:西直门"]}]}]},{"id":"beijing-14","lineId":"14","lineName":"14号线","operatorName":"北京轨道交通","color":"#E4A8A3","stationIds":["beijing:善各庄","beijing:来广营","beijing:东湖渠","beijing:望京","beijing:阜通","beijing:望京南","beijing:将台","beijing:东风北桥","beijing:枣营","beijing:朝阳公园","beijing:金台路","beijing:大望路","beijing:九龙山","beijing:平乐园","beijing:北工大西门","beijing:十里河","beijing:方庄","beijing:蒲黄榆","beijing:景泰","beijing:永定门外","beijing:北京南站","beijing:景风门","beijing:西铁营","beijing:菜户营","beijing:丽泽商务区","beijing:东管头","beijing:西局","beijing:七里庄","beijing:大井","beijing:郭庄子","beijing:大瓦窑","beijing:园博园","beijing:张郭庄"],"mapPaths":[{"id":"900000028907","stationIds":["beijing:善各庄","beijing:来广营","beijing:东湖渠","beijing:望京","beijing:阜通","beijing:望京南","beijing:将台","beijing:东风北桥","beijing:枣营","beijing:朝阳公园","beijing:金台路","beijing:大望路","beijing:九龙山","beijing:平乐园","beijing:北工大西门","beijing:十里河","beijing:方庄","beijing:蒲黄榆","beijing:景泰","beijing:永定门外","beijing:北京南站","beijing:景风门","beijing:西铁营","beijing:菜户营","beijing:丽泽商务区","beijing:东管头","beijing:西局","beijing:七里庄","beijing:大井","beijing:郭庄子","beijing:大瓦窑","beijing:园博园","beijing:张郭庄"]}],"runs":[{"id":"beijing-14-run-1","nameZh":"14号线","kind":"linear","directions":[{"id":"beijing-14-run-1-forward","labelZh":"正向","stationIds":["beijing:善各庄","beijing:来广营","beijing:东湖渠","beijing:望京","beijing:阜通","beijing:望京南","beijing:将台","beijing:东风北桥","beijing:枣营","beijing:朝阳公园","beijing:金台路","beijing:大望路","beijing:九龙山","beijing:平乐园","beijing:北工大西门","beijing:十里河","beijing:方庄","beijing:蒲黄榆","beijing:景泰","beijing:永定门外","beijing:北京南站","beijing:景风门","beijing:西铁营","beijing:菜户营","beijing:丽泽商务区","beijing:东管头","beijing:西局","beijing:七里庄","beijing:大井","beijing:郭庄子","beijing:大瓦窑","beijing:园博园","beijing:张郭庄"]},{"id":"beijing-14-run-1-reverse","labelZh":"反向","stationIds":["beijing:张郭庄","beijing:园博园","beijing:大瓦窑","beijing:郭庄子","beijing:大井","beijing:七里庄","beijing:西局","beijing:东管头","beijing:丽泽商务区","beijing:菜户营","beijing:西铁营","beijing:景风门","beijing:北京南站","beijing:永定门外","beijing:景泰","beijing:蒲黄榆","beijing:方庄","beijing:十里河","beijing:北工大西门","beijing:平乐园","beijing:九龙山","beijing:大望路","beijing:金台路","beijing:朝阳公园","beijing:枣营","beijing:东风北桥","beijing:将台","beijing:望京南","beijing:阜通","beijing:望京","beijing:东湖渠","beijing:来广营","beijing:善各庄"]}]}]},{"id":"beijing-15","lineId":"15","lineName":"15号线","operatorName":"北京轨道交通","color":"#793E8C","stationIds":["beijing:俸伯","beijing:顺义","beijing:石门","beijing:南法信","beijing:后沙峪","beijing:花梨坎","beijing:国展","beijing:孙河","beijing:马泉营","beijing:崔各庄","beijing:望京东","beijing:望京","beijing:望京西","beijing:关庄","beijing:大屯路东","beijing:安立路","beijing:奥林匹克公园","beijing:北沙滩","beijing:六道口","beijing:清华东路西口"],"mapPaths":[{"id":"110100023070","stationIds":["beijing:俸伯","beijing:顺义","beijing:石门","beijing:南法信","beijing:后沙峪","beijing:花梨坎","beijing:国展","beijing:孙河","beijing:马泉营","beijing:崔各庄","beijing:望京东","beijing:望京","beijing:望京西","beijing:关庄","beijing:大屯路东","beijing:安立路","beijing:奥林匹克公园","beijing:北沙滩","beijing:六道口","beijing:清华东路西口"]}],"runs":[{"id":"beijing-15-run-1","nameZh":"15号线","kind":"linear","directions":[{"id":"beijing-15-run-1-forward","labelZh":"正向","stationIds":["beijing:俸伯","beijing:顺义","beijing:石门","beijing:南法信","beijing:后沙峪","beijing:花梨坎","beijing:国展","beijing:孙河","beijing:马泉营","beijing:崔各庄","beijing:望京东","beijing:望京","beijing:望京西","beijing:关庄","beijing:大屯路东","beijing:安立路","beijing:奥林匹克公园","beijing:北沙滩","beijing:六道口","beijing:清华东路西口"]},{"id":"beijing-15-run-1-reverse","labelZh":"反向","stationIds":["beijing:清华东路西口","beijing:六道口","beijing:北沙滩","beijing:奥林匹克公园","beijing:安立路","beijing:大屯路东","beijing:关庄","beijing:望京西","beijing:望京","beijing:望京东","beijing:崔各庄","beijing:马泉营","beijing:孙河","beijing:国展","beijing:花梨坎","beijing:后沙峪","beijing:南法信","beijing:石门","beijing:顺义","beijing:俸伯"]}]}]},{"id":"beijing-16","lineId":"16","lineName":"16号线","operatorName":"北京轨道交通","color":"#6CB46B","stationIds":["beijing:北安河","beijing:温阳路","beijing:稻香湖路","beijing:屯佃","beijing:永丰","beijing:永丰南","beijing:西北旺","beijing:马连洼","beijing:农大南路","beijing:西苑","beijing:万泉河桥","beijing:苏州街","beijing:苏州桥","beijing:万寿寺","beijing:国家图书馆","beijing:二里沟","beijing:甘家口","beijing:玉渊潭东门","beijing:木樨地","beijing:达官营","beijing:红莲南路","beijing:丽泽商务区","beijing:东管头南","beijing:丰台站","beijing:丰台南路","beijing:富丰桥","beijing:看丹","beijing:榆树庄","beijing:洪泰庄","beijing:宛平城"],"mapPaths":[{"id":"900000062236","stationIds":["beijing:北安河","beijing:温阳路","beijing:稻香湖路","beijing:屯佃","beijing:永丰","beijing:永丰南","beijing:西北旺","beijing:马连洼","beijing:农大南路","beijing:西苑","beijing:万泉河桥","beijing:苏州街","beijing:苏州桥","beijing:万寿寺","beijing:国家图书馆","beijing:二里沟","beijing:甘家口","beijing:玉渊潭东门","beijing:木樨地","beijing:达官营","beijing:红莲南路","beijing:丽泽商务区","beijing:东管头南","beijing:丰台站","beijing:丰台南路","beijing:富丰桥","beijing:看丹","beijing:榆树庄","beijing:洪泰庄","beijing:宛平城"]}],"runs":[{"id":"beijing-16-run-1","nameZh":"16号线","kind":"linear","directions":[{"id":"beijing-16-run-1-forward","labelZh":"正向","stationIds":["beijing:北安河","beijing:温阳路","beijing:稻香湖路","beijing:屯佃","beijing:永丰","beijing:永丰南","beijing:西北旺","beijing:马连洼","beijing:农大南路","beijing:西苑","beijing:万泉河桥","beijing:苏州街","beijing:苏州桥","beijing:万寿寺","beijing:国家图书馆","beijing:二里沟","beijing:甘家口","beijing:玉渊潭东门","beijing:木樨地","beijing:达官营","beijing:红莲南路","beijing:丽泽商务区","beijing:东管头南","beijing:丰台站","beijing:丰台南路","beijing:富丰桥","beijing:看丹","beijing:榆树庄","beijing:洪泰庄","beijing:宛平城"]},{"id":"beijing-16-run-1-reverse","labelZh":"反向","stationIds":["beijing:宛平城","beijing:洪泰庄","beijing:榆树庄","beijing:看丹","beijing:富丰桥","beijing:丰台南路","beijing:丰台站","beijing:东管头南","beijing:丽泽商务区","beijing:红莲南路","beijing:达官营","beijing:木樨地","beijing:玉渊潭东门","beijing:甘家口","beijing:二里沟","beijing:国家图书馆","beijing:万寿寺","beijing:苏州桥","beijing:苏州街","beijing:万泉河桥","beijing:西苑","beijing:农大南路","beijing:马连洼","beijing:西北旺","beijing:永丰南","beijing:永丰","beijing:屯佃","beijing:稻香湖路","beijing:温阳路","beijing:北安河"]}]}]},{"id":"beijing-17","lineId":"17","lineName":"17号线","operatorName":"北京轨道交通","color":"#00AD8E","stationIds":["beijing:嘉会湖","beijing:次渠","beijing:次渠北","beijing:北神树","beijing:十八里店","beijing:周家庄","beijing:十里河","beijing:潘家园西","beijing:永安里","beijing:东大桥","beijing:工人体育场","beijing:左家庄","beijing:西坝河","beijing:太阳宫","beijing:望京西","beijing:红军营","beijing:清河营","beijing:天通苑东","beijing:未来科学城","beijing:未来科学城北"],"mapPaths":[{"id":"900000099933","stationIds":["beijing:嘉会湖","beijing:次渠","beijing:次渠北","beijing:北神树","beijing:十八里店","beijing:周家庄","beijing:十里河","beijing:潘家园西","beijing:永安里","beijing:东大桥","beijing:工人体育场","beijing:左家庄","beijing:西坝河","beijing:太阳宫","beijing:望京西","beijing:红军营","beijing:清河营","beijing:天通苑东","beijing:未来科学城","beijing:未来科学城北"]}],"runs":[{"id":"beijing-17-run-1","nameZh":"17号线","kind":"linear","directions":[{"id":"beijing-17-run-1-forward","labelZh":"正向","stationIds":["beijing:嘉会湖","beijing:次渠","beijing:次渠北","beijing:北神树","beijing:十八里店","beijing:周家庄","beijing:十里河","beijing:潘家园西","beijing:永安里","beijing:东大桥","beijing:工人体育场","beijing:左家庄","beijing:西坝河","beijing:太阳宫","beijing:望京西","beijing:红军营","beijing:清河营","beijing:天通苑东","beijing:未来科学城","beijing:未来科学城北"]},{"id":"beijing-17-run-1-reverse","labelZh":"反向","stationIds":["beijing:未来科学城北","beijing:未来科学城","beijing:天通苑东","beijing:清河营","beijing:红军营","beijing:望京西","beijing:太阳宫","beijing:西坝河","beijing:左家庄","beijing:工人体育场","beijing:东大桥","beijing:永安里","beijing:潘家园西","beijing:十里河","beijing:周家庄","beijing:十八里店","beijing:北神树","beijing:次渠北","beijing:次渠","beijing:嘉会湖"]}]}]},{"id":"beijing-18","lineId":"18","lineName":"18号线","operatorName":"北京轨道交通","color":"#786DAF","stationIds":["beijing:马连洼","beijing:上地软件园","beijing:东北旺","beijing:龙泽西","beijing:回龙观西大街","beijing:文华路","beijing:回龙观东大街","beijing:霍营东","beijing:天通苑","beijing:太平庄","beijing:天通苑东"],"mapPaths":[{"id":"900000179110","stationIds":["beijing:马连洼","beijing:上地软件园","beijing:东北旺","beijing:龙泽西","beijing:回龙观西大街","beijing:文华路","beijing:回龙观东大街","beijing:霍营东","beijing:天通苑","beijing:太平庄","beijing:天通苑东"]}],"runs":[{"id":"beijing-18-run-1","nameZh":"18号线","kind":"linear","directions":[{"id":"beijing-18-run-1-forward","labelZh":"正向","stationIds":["beijing:马连洼","beijing:上地软件园","beijing:东北旺","beijing:龙泽西","beijing:回龙观西大街","beijing:文华路","beijing:回龙观东大街","beijing:霍营东","beijing:天通苑","beijing:太平庄","beijing:天通苑东"]},{"id":"beijing-18-run-1-reverse","labelZh":"反向","stationIds":["beijing:天通苑东","beijing:太平庄","beijing:天通苑","beijing:霍营东","beijing:回龙观东大街","beijing:文华路","beijing:回龙观西大街","beijing:龙泽西","beijing:东北旺","beijing:上地软件园","beijing:马连洼"]}]}]},{"id":"beijing-19","lineId":"19","lineName":"19号线","operatorName":"北京轨道交通","color":"#B97CAF","stationIds":["beijing:新宫","beijing:新发地","beijing:草桥","beijing:景风门","beijing:牛街","beijing:太平桥","beijing:平安里","beijing:积水潭","beijing:北太平庄","beijing:牡丹园"],"mapPaths":[{"id":"900000079004","stationIds":["beijing:新宫","beijing:新发地","beijing:草桥","beijing:景风门","beijing:牛街","beijing:太平桥","beijing:平安里","beijing:积水潭","beijing:北太平庄","beijing:牡丹园"]}],"runs":[{"id":"beijing-19-run-1","nameZh":"19号线","kind":"linear","directions":[{"id":"beijing-19-run-1-forward","labelZh":"正向","stationIds":["beijing:新宫","beijing:新发地","beijing:草桥","beijing:景风门","beijing:牛街","beijing:太平桥","beijing:平安里","beijing:积水潭","beijing:北太平庄","beijing:牡丹园"]},{"id":"beijing-19-run-1-reverse","labelZh":"反向","stationIds":["beijing:牡丹园","beijing:北太平庄","beijing:积水潭","beijing:平安里","beijing:太平桥","beijing:牛街","beijing:景风门","beijing:草桥","beijing:新发地","beijing:新宫"]}]}]},{"id":"beijing-昌平","lineId":"昌平","lineName":"昌平线","operatorName":"北京轨道交通","color":"#EB81B9","stationIds":["beijing:昌平西山口","beijing:十三陵景区","beijing:昌平","beijing:昌平东关","beijing:北邵洼","beijing:南邵","beijing:沙河高教园","beijing:沙河","beijing:巩华城","beijing:朱辛庄","beijing:生命科学园","beijing:西二旗","beijing:清河站","beijing:朱房北","beijing:清河小营桥","beijing:学知园","beijing:六道口","beijing:学院桥","beijing:西土城","beijing:蓟门桥"],"mapPaths":[{"id":"110100023118","stationIds":["beijing:昌平西山口","beijing:十三陵景区","beijing:昌平","beijing:昌平东关","beijing:北邵洼","beijing:南邵","beijing:沙河高教园","beijing:沙河","beijing:巩华城","beijing:朱辛庄","beijing:生命科学园","beijing:西二旗","beijing:清河站","beijing:朱房北","beijing:清河小营桥","beijing:学知园","beijing:六道口","beijing:学院桥","beijing:西土城","beijing:蓟门桥"]}],"runs":[{"id":"beijing-昌平-run-1","nameZh":"昌平线","kind":"linear","directions":[{"id":"beijing-昌平-run-1-forward","labelZh":"正向","stationIds":["beijing:昌平西山口","beijing:十三陵景区","beijing:昌平","beijing:昌平东关","beijing:北邵洼","beijing:南邵","beijing:沙河高教园","beijing:沙河","beijing:巩华城","beijing:朱辛庄","beijing:生命科学园","beijing:西二旗","beijing:清河站","beijing:朱房北","beijing:清河小营桥","beijing:学知园","beijing:六道口","beijing:学院桥","beijing:西土城","beijing:蓟门桥"]},{"id":"beijing-昌平-run-1-reverse","labelZh":"反向","stationIds":["beijing:蓟门桥","beijing:西土城","beijing:学院桥","beijing:六道口","beijing:学知园","beijing:清河小营桥","beijing:朱房北","beijing:清河站","beijing:西二旗","beijing:生命科学园","beijing:朱辛庄","beijing:巩华城","beijing:沙河","beijing:沙河高教园","beijing:南邵","beijing:北邵洼","beijing:昌平东关","beijing:昌平","beijing:十三陵景区","beijing:昌平西山口"]}]}]},{"id":"beijing-大兴机场","lineId":"大兴机场","lineName":"大兴机场线","operatorName":"北京轨道交通","color":"#2249A3","stationIds":["beijing:草桥","beijing:大兴新城","beijing:大兴机场"],"mapPaths":[{"id":"900000076659","stationIds":["beijing:草桥","beijing:大兴新城","beijing:大兴机场"]}],"runs":[{"id":"beijing-大兴机场-run-1","nameZh":"大兴机场线","kind":"linear","directions":[{"id":"beijing-大兴机场-run-1-forward","labelZh":"正向","stationIds":["beijing:草桥","beijing:大兴新城","beijing:大兴机场"]},{"id":"beijing-大兴机场-run-1-reverse","labelZh":"反向","stationIds":["beijing:大兴机场","beijing:大兴新城","beijing:草桥"]}]}]},{"id":"beijing-房山","lineId":"房山","lineName":"房山线","operatorName":"北京轨道交通","color":"#EE782E","stationIds":["beijing:阎村东","beijing:苏庄","beijing:良乡南关","beijing:良乡大学城西","beijing:良乡大学城","beijing:良乡大学城北","beijing:广阳城","beijing:篱笆房","beijing:长阳","beijing:稻田","beijing:大葆台","beijing:郭公庄","beijing:白盆窑","beijing:花乡东桥","beijing:首经贸","beijing:东管头南"],"mapPaths":[{"id":"110100023092","stationIds":["beijing:阎村东","beijing:苏庄","beijing:良乡南关","beijing:良乡大学城西","beijing:良乡大学城","beijing:良乡大学城北","beijing:广阳城","beijing:篱笆房","beijing:长阳","beijing:稻田","beijing:大葆台","beijing:郭公庄","beijing:白盆窑","beijing:花乡东桥","beijing:首经贸","beijing:东管头南"]}],"runs":[{"id":"beijing-房山-run-1","nameZh":"房山线","kind":"linear","directions":[{"id":"beijing-房山-run-1-forward","labelZh":"正向","stationIds":["beijing:阎村东","beijing:苏庄","beijing:良乡南关","beijing:良乡大学城西","beijing:良乡大学城","beijing:良乡大学城北","beijing:广阳城","beijing:篱笆房","beijing:长阳","beijing:稻田","beijing:大葆台","beijing:郭公庄","beijing:白盆窑","beijing:花乡东桥","beijing:首经贸","beijing:东管头南"]},{"id":"beijing-房山-run-1-reverse","labelZh":"反向","stationIds":["beijing:东管头南","beijing:首经贸","beijing:花乡东桥","beijing:白盆窑","beijing:郭公庄","beijing:大葆台","beijing:稻田","beijing:长阳","beijing:篱笆房","beijing:广阳城","beijing:良乡大学城北","beijing:良乡大学城","beijing:良乡大学城西","beijing:良乡南关","beijing:苏庄","beijing:阎村东"]}]}]},{"id":"beijing-首都机场","lineId":"首都机场","lineName":"首都机场线","operatorName":"北京轨道交通","color":"#A49ABD","stationIds":["beijing:北新桥","beijing:东直门","beijing:三元桥","beijing:3号航站楼","beijing:2号航站楼"],"mapPaths":[{"id":"beijing-首都机场-city-path","stationIds":["beijing:北新桥","beijing:东直门","beijing:三元桥"]},{"id":"beijing-首都机场-airport-loop","stationIds":["beijing:三元桥","beijing:3号航站楼","beijing:2号航站楼","beijing:三元桥"],"closed":true}],"runs":[{"id":"beijing-首都机场-run-1","nameZh":"市区—首都机场","kind":"linear","directions":[{"id":"beijing-首都机场-outbound","labelZh":"前往机场","stationIds":["beijing:北新桥","beijing:东直门","beijing:三元桥","beijing:3号航站楼","beijing:2号航站楼"]},{"id":"beijing-首都机场-inbound","labelZh":"返回市区","stationIds":["beijing:2号航站楼","beijing:三元桥","beijing:东直门","beijing:北新桥"]}]}]},{"id":"beijing-西郊","lineId":"西郊","lineName":"西郊线","operatorName":"北京轨道交通","color":"#FC0601","stationIds":["beijing:巴沟","beijing:颐和园西门","beijing:茶棚","beijing:万安","beijing:国家植物园","beijing:香山"],"mapPaths":[{"id":"110100023060","stationIds":["beijing:巴沟","beijing:颐和园西门","beijing:茶棚","beijing:万安","beijing:国家植物园","beijing:香山"]}],"runs":[{"id":"beijing-西郊-run-1","nameZh":"西郊线","kind":"linear","directions":[{"id":"beijing-西郊-run-1-forward","labelZh":"正向","stationIds":["beijing:巴沟","beijing:颐和园西门","beijing:茶棚","beijing:万安","beijing:国家植物园","beijing:香山"]},{"id":"beijing-西郊-run-1-reverse","labelZh":"反向","stationIds":["beijing:香山","beijing:国家植物园","beijing:万安","beijing:茶棚","beijing:颐和园西门","beijing:巴沟"]}]}]},{"id":"beijing-燕房","lineId":"燕房","lineName":"燕房线","operatorName":"北京轨道交通","color":"#EE782E","stationIds":["beijing:阎村东","beijing:紫草坞","beijing:阎村","beijing:星城","beijing:大石河东","beijing:马各庄","beijing:饶乐府","beijing:房山城关","beijing:燕山"],"mapPaths":[{"id":"900000029622","stationIds":["beijing:阎村东","beijing:紫草坞","beijing:阎村","beijing:星城","beijing:大石河东","beijing:马各庄","beijing:饶乐府","beijing:房山城关","beijing:燕山"]}],"runs":[{"id":"beijing-燕房-run-1","nameZh":"燕房线","kind":"linear","directions":[{"id":"beijing-燕房-run-1-forward","labelZh":"正向","stationIds":["beijing:阎村东","beijing:紫草坞","beijing:阎村","beijing:星城","beijing:大石河东","beijing:马各庄","beijing:饶乐府","beijing:房山城关","beijing:燕山"]},{"id":"beijing-燕房-run-1-reverse","labelZh":"反向","stationIds":["beijing:燕山","beijing:房山城关","beijing:饶乐府","beijing:马各庄","beijing:大石河东","beijing:星城","beijing:阎村","beijing:紫草坞","beijing:阎村东"]}]}]},{"id":"beijing-亦庄","lineId":"亦庄","lineName":"亦庄线","operatorName":"北京轨道交通","color":"#F0087D","stationIds":["beijing:宋家庄","beijing:肖村","beijing:小红门","beijing:旧宫","beijing:亦庄桥","beijing:亦庄文化园","beijing:万源街","beijing:荣京东街","beijing:荣昌东街","beijing:同济南路","beijing:经海路","beijing:次渠南","beijing:次渠","beijing:亦庄火车站"],"mapPaths":[{"id":"110100023102","stationIds":["beijing:宋家庄","beijing:肖村","beijing:小红门","beijing:旧宫","beijing:亦庄桥","beijing:亦庄文化园","beijing:万源街","beijing:荣京东街","beijing:荣昌东街","beijing:同济南路","beijing:经海路","beijing:次渠南","beijing:次渠","beijing:亦庄火车站"]}],"runs":[{"id":"beijing-亦庄-run-1","nameZh":"亦庄线","kind":"linear","directions":[{"id":"beijing-亦庄-run-1-forward","labelZh":"正向","stationIds":["beijing:宋家庄","beijing:肖村","beijing:小红门","beijing:旧宫","beijing:亦庄桥","beijing:亦庄文化园","beijing:万源街","beijing:荣京东街","beijing:荣昌东街","beijing:同济南路","beijing:经海路","beijing:次渠南","beijing:次渠","beijing:亦庄火车站"]},{"id":"beijing-亦庄-run-1-reverse","labelZh":"反向","stationIds":["beijing:亦庄火车站","beijing:次渠","beijing:次渠南","beijing:经海路","beijing:同济南路","beijing:荣昌东街","beijing:荣京东街","beijing:万源街","beijing:亦庄文化园","beijing:亦庄桥","beijing:旧宫","beijing:小红门","beijing:肖村","beijing:宋家庄"]}]}]}],"districts":[{"name":"东城区","rings":[[[116.44364,39.87284],[116.445648,39.879283],[116.444059,39.890038],[116.450939,39.890249],[116.450876,39.894088],[116.447154,39.894186],[116.446819,39.900042],[116.448722,39.903246],[116.436488,39.902042],[116.434983,39.913964],[116.434314,39.92868],[116.443682,39.928664],[116.443703,39.936663],[116.446338,39.946205],[116.440566,39.945295],[116.442239,39.9497],[116.435422,39.952121],[116.436698,39.949245],[116.429483,39.950155],[116.429002,39.957274],[116.424861,39.962279],[116.414196,39.962182],[116.411415,39.964928],[116.411101,39.97146],[116.407504,39.973995],[116.40788,39.962182],[116.389498,39.96314],[116.387658,39.96093],[116.38678,39.957014],[116.393346,39.957355],[116.394266,39.940629],[116.396169,39.94006],[116.396692,39.928306],[116.399474,39.923574],[116.392175,39.92242],[116.392259,39.907881],[116.395563,39.907995],[116.396086,39.89944],[116.397612,39.898675],[116.399097,39.872205],[116.38059,39.871148],[116.380632,39.866054],[116.387888,39.867372],[116.394956,39.862734],[116.3955,39.858682],[116.406856,39.859967],[116.41246,39.858942],[116.41589,39.863645],[116.413652,39.871148],[116.423209,39.872824],[116.442574,39.87188],[116.44364,39.87284]]]},{"name":"西城区","rings":[[[116.325799,39.896789],[116.32582,39.891111],[116.320759,39.881512],[116.321324,39.875199],[116.326636,39.876859],[116.335273,39.875183],[116.341567,39.876159],[116.344286,39.873653],[116.349472,39.873588],[116.35058,39.86869],[116.38059,39.871148],[116.399097,39.872205],[116.397612,39.898675],[116.396086,39.89944],[116.395563,39.907995],[116.392259,39.907881],[116.392175,39.92242],[116.399474,39.923574],[116.396692,39.928306],[116.396169,39.94006],[116.394266,39.940629],[116.393346,39.957355],[116.38678,39.957014],[116.387658,39.96093],[116.390084,39.968406],[116.394162,39.969397],[116.394099,39.972858],[116.380903,39.972712],[116.380401,39.968178],[116.370384,39.967902],[116.371974,39.948594],[116.356206,39.944092],[116.352023,39.950854],[116.352421,39.943832],[116.341442,39.941979],[116.332889,39.944092],[116.327953,39.942369],[116.333056,39.938565],[116.334645,39.922664],[116.335356,39.898448],[116.337301,39.89739],[116.325799,39.896789]]]},